$GPGSA,A,3,29,15,02,13,,,,,,,,,3.26,3.11,0.98*08
$GPGSV,4,1,13,29,80,345,16,15,65,129,32,20,57,355,17,13,43,074,19*7F
$GPGSV,4,2,13,18,33,259,,25,27,215,,21,25,316,,05,22,037,*7F
$GPGSV,4,3,13,02,16,087,14,12,12,181,,24,08,160,,10,07,241,*73
$GPGSV,4,4,13,26,04,307,*4F
$GPRMC,203623.000,A,1919.6962,N,09910.8879,W,0.67,25.77,130917,,,A*45
$GPVTG,25.77,T,,M,0.67,N,1.23,K,A*0B
$GPGGA,203624.000,1919.6968,N,09910.8883,W,1,04,3.11,2282.8,M,-9.0,M,,*55
$GPGSA,A,3,29,15,02,13,,,,,,,,,3.27,3.11,0.98*09
$GPRMC,203624.000,A,1919.6968,N,09910.8883,W,0.61,14.44,130917,,,A*49
$GPVTG,14.44,T,,M,0.61,N,1.13,K,A*0C
$GPGGA,203625.000,1919.6969,N,09910.8884,W,1,04,4.60,2282.9,M,-9.0,M,,*52
$GPGSA,A,3,29,15,02,13,,,,,,,,,6.82,4.60,5.05*03
$GPRMC,203625.000,A,1919.6969,N,09910.8884,W,0.50,16.90,130917,,,A*47
$GPVTG,16.90,T,,M,0.50,N,0.93,K,A*0C
$GPGGA,203626.000,1919.6973,N,09910.8883,W,1,04,3.12,2282.9,M,-9.0,M,,*5F
$GPGSA,A,3,29,15,02,13,,,,,,,,,3.27,3.12,0.98*0A
$GPRMC,203626.000,A,1919.6973,N,09910.8883,W,0.65,30.48,130917,,,A*4F
$GPVTG,30.48,T,,M,0.65,N,1.21,K,A*03
$GPGGA,203627.000,1919.6976,N,09910.8881,W,1,04,3.12,2282.9,M,-9.0,M,,*59
$GPGSA,A,3,29,15,02,13,,,,,,,,,3.27,3.12,0.98*0A
$GPRMC,203627.000,A,1919.6976,N,09910.8881,W,0.82,44.92,130917,,,A*44
$GPVTG,44.92,T,,M,0.82,N,1.53,K,A*0B
$GPGGA,203628.000,1919.6978,N,09910.8881,W,1,04,3.12,2282.9,M,-9.0,M,,*58
$GPGSA,A,3,29,15,02,13,,,,,,,,,3.27,3.12,0.98*0A
$GPGSV,4,1,13,29,80,345,13,15,65,129,32,20,57,355,17,13,43,074,20*70
$GPGSV,4,2,13,18,33,259,,25,26,214,,21,25,316,,05,22,037,*7F
$GPGSV,4,3,13,02,16,087,13,12,12,181,,24,08,160,,10,07,241,*74
$GPGSV,4,4,13,26,04,307,*4F
$GPRMC,203628.000,A,1919.6978,N,09910.8881,W,0.70,38.75,130917,,,A*4A
$GPVTG,38.75,T,,M,0.70,N,1.29,K,A*09
$GPGGA,203629.000,1919.6981,N,09910.8881,W,1,04,3.12,2282.9,M,-9.0,M,,*5F
$GPGSA,A,3,29,15,02,13,,,,,,,,,3.27,3.12,0.98*0A
$GPRMC,203629.000,A,1919.6981,N,09910.8881,W,0.83,14.25,130917,,,A*4A
$GPVTG,14.25,T,,M,0.83,N,1.54,K,A*04
$GPGGA,203630.000,1919.6982,N,09910.8885,W,1,04,4.60,2282.9,M,-9.0,M,,*52
$GPGSA,A,3,29,15,02,13,,,,,,,,,6.83,4.60,5.04*03
$GPRMC,203630.000,A,1919.6982,N,09910.8885,W,0.50,15.68,130917,,,A*43
$GPVTG,15.68,T,,M,0.50,N,0.93,K,A*08
$GPGGA,203631.000,1919.6984,N,09910.8888,W,1,04,3.12,2282.9,M,-9.0,M,,*5A
$GPGSA,A,3,29,15,02,13,,,,,,,,,3.27,3.12,0.98*0A
$GPRMC,203631.000,A,1919.6984,N,09910.8888,W,0.37,31.29,130917,,,A*4B
$GPVTG,31.29,T,,M,0.37,N,0.69,K,A*0F
$GPGGA,203632.000,1919.6984,N,09910.8882,W,1,04,3.12,2283.0,M,-9.0,M,,*5B
$GPGSA,A,3,29,15,02,13,,,,,,,,,3.27,3.12,0.98*0A
$GPRMC,203632.000,A,1919.6984,N,09910.8882,W,0.88,39.87,130917,,,A*4A
$GPVTG,39.87,T,,M,0.88,N,1.64,K,A*0B
$GPGGA,203633.000,1919.6980,N,09910.8875,W,1,04,3.12,2283.0,M,-9.0,M,,*56
$GPGSA,A,3,29,15,02,13,,,,,,,,,3.27,3.12,0.98*0A
$GPGSV,4,1,13,29,80,345,17,15,65,129,32,20,57,355,17,13,43,074,21*75
$GPGSV,4,2,13,18,33,259,,25,26,214,,21,25,316,,05,22,037,*7F
$GPGSV,4,3,13,02,16,087,11,12,12,181,,24,08,160,,10,07,241,*76
$GPGSV,4,4,13,26,04,307,*4F
$GPRMC,203633.000,A,1919.6980,N,09910.8875,W,1.07,79.30,130917,,,A*49
$GPVTG,79.30,T,,M,1.07,N,1.99,K,A*07
$GPGGA,203634.000,1919.6980,N,09910.8873,W,1,04,3.12,2283.0,M,-9.0,M,,*57
$GPGSA,A,3,29,15,02,13,,,,,,,,,3.27,3.12,0.98*0A
$GPRMC,203634.000,A,1919.6980,N,09910.8873,W,1.10,64.36,130917,,,A*44
$GPVTG,64.36,T,,M,1.10,N,2.03,K,A*0B
$GPGGA,203635.000,1919.6980,N,09910.8866,W,1,04,3.12,2283.0,M,-9.0,M,,*52
$GPGSA,A,3,29,15,02,13,,,,,,,,,3.27,3.12,0.98*0A
$GPRMC,203635.000,A,1919.6980,N,09910.8866,W,1.40,51.03,130917,,,A*44
$GPVTG,51.03,T,,M,1.40,N,2.59,K,A*01
$GPGGA,203636.000,1919.6979,N,09910.8860,W,1,04,3.12,2283.0,M,-9.0,M,,*51
$GPGSA,A,3,29,15,02,13,,,,,,,,,3.27,3.12,0.98*0A
$GPRMC,203636.000,A,1919.6979,N,09910.8860,W,1.34,47.46,130917,,,A*42
$GPVTG,47.46,T,,M,1.34,N,2.48,K,A*04
$GPGGA,203637.000,1919.6972,N,09910.8854,W,1,04,3.12,2283.0,M,-9.0,M,,*5C
$GPGSA,A,3,29,15,02,13,,,,,,,,,3.27,3.12,0.98*0A
$GPRMC,203637.000,A,1919.6972,N,09910.8854,W,1.06,68.86,130917,,,A*4F
$GPVTG,68.86,T,,M,1.06,N,1.96,K,A*04
$GPGGA,203638.000,1919.6967,N,09910.8850,W,1,04,3.13,2283.1,M,-9.0,M,,*53
$GPGSA,A,3,29,15,02,13,,,,,,,,,3.28,3.13,0.98*04
$GPGSV,4,1,13,29,80,345,17,15,65,129,32,20,57,355,17,13,43,074,21*75
$GPGSV,4,2,13,18,33,259,,25,26,214,,21,25,316,,05,22,037,*7F
$GPGSV,4,3,13,02,16,087,13,12,12,181,,24,08,160,,10,07,241,*74
$GPGSV,4,4,13,26,04,307,*4F
$GPRMC,203638.000,A,1919.6967,N,09910.8850,W,0.93,75.34,130917,,,A*48
$GPVTG,75.34,T,,M,0.93,N,1.73,K,A*07
$GPGGA,203639.000,1919.6960,N,09910.8846,W,1,04,3.13,2283.1,M,-9.0,M,,*52
$GPGSA,A,3,29,15,02,13,,,,,,,,,3.28,3.13,0.98*04
$GPRMC,203639.000,A,1919.6960,N,09910.8846,W,0.97,89.26,130917,,,A*4D
$GPVTG,89.26,T,,M,0.97,N,1.80,K,A*0F
$GPGGA,203640.000,1919.6953,N,09910.8841,W,1,04,3.13,2283.1,M,-9.0,M,,*5B
$GPGSA,A,3,29,15,02,13,,,,,,,,,3.28,3.13,0.98*04
$GPRMC,203640.000,A,1919.6953,N,09910.8841,W,0.78,85.53,130917,,,A*4B
$GPVTG,85.53,T,,M,0.78,N,1.45,K,A*09
$GPGGA,203641.000,1919.6948,N,09910.8837,W,1,04,3.13,2283.1,M,-9.0,M,,*51
$GPGSA,A,3,29,15,02,13,,,,,,,,,3.28,3.13,0.98*04
$GPRMC,203641.000,A,1919.6948,N,09910.8837,W,0.61,72.89,130917,,,A*46
$GPVTG,72.89,T,,M,0.61,N,1.13,K,A*0D
$GPGGA,203642.000,1919.6942,N,09910.8834,W,1,04,3.13,2283.1,M,-9.0,M,,*5B
$GPGSA,A,3,29,15,02,13,,,,,,,,,3.28,3.13,0.98*04
$GPRMC,203642.000,A,1919.6942,N,09910.8834,W,0.75,100.75,130917,,,A*7E
$GPVTG,100.75,T,,M,0.75,N,1.40,K,A*39
$GPGGA,203643.000,1919.6940,N,09910.8837,W,1,04,3.13,2283.1,M,-9.0,M,,*5B
$GPGSA,A,3,29,15,02,13,,,,,,,,,3.28,3.13,0.98*04
$GPGSV,4,1,13,29,80,345,17,15,65,129,32,20,57,355,17,13,43,074,22*76
$GPGSV,4,2,13,18,33,259,,25,26,214,,21,25,316,,05,22,038,*70
$GPGSV,4,3,13,02,16,087,13,12,12,181,,24,08,160,,10,07,241,*74
$GPGSV,4,4,13,26,04,307,*4F
$GPRMC,203643.000,A,1919.6940,N,09910.8837,W,0.55,93.31,130917,,,A*47
$GPVTG,93.31,T,,M,0.55,N,1.01,K,A*05
$GPGGA,203644.000,1919.6938,N,09910.8838,W,1,04,3.13,2283.1,M,-9.0,M,,*5C
$GPGSA,A,3,29,15,02,13,,,,,,,,,3.28,3.13,0.98*04
$GPRMC,203644.000,A,1919.6938,N,09910.8838,W,0.59,89.38,130917,,,A*4E
$GPVTG,89.38,T,,M,0.59,N,1.10,K,A*0B
$GPGGA,203645.000,1919.6932,N,09910.8835,W,1,04,3.13,2283.2,M,-9.0,M,,*59
$GPGSA,A,3,29,15,02,13,,,,,,,,,3.28,3.13,0.98*04
$GPRMC,203645.000,A,1919.6932,N,09910.8835,W,0.63,100.42,130917,,,A*7C
$GPVTG,100.42,T,,M,0.63,N,1.17,K,A*38
$GPGGA,203646.000,1919.6928,N,09910.8832,W,1,04,3.13,2283.2,M,-9.0,M,,*56
$GPGSA,A,3,29,15,02,13,,,,,,,,,3.28,3.13,0.98*04
$GPRMC,203646.000,A,1919.6928,N,09910.8832,W,0.56,110.00,130917,,,A*72
$GPVTG,110.00,T,,M,0.56,N,1.03,K,A*3C
$GPGGA,203647.000,1919.6923,N,09910.8830,W,1,04,3.13,2283.2,M,-9.0,M,,*5E
$GPGSA,A,3,29,15,02,13,,,,,,,,,3.28,3.13,0.98*04
$GPRMC,203647.000,A,1919.6923,N,09910.8830,W,0.43,118.22,130917,,,A*76
$GPVTG,118.22,T,,M,0.43,N,0.80,K,A*3A
$GPGGA,203648.000,1919.6919,N,09910.8830,W,1,04,3.13,2283.2,M,-9.0,M,,*58
$GPGSA,A,3,29,15,02,13,,,,,,,,,3.28,3.13,0.98*04
$GPGSV,4,1,13,29,80,345,16,15,65,129,31,20,57,355,15,13,43,074,22*76
$GPGSV,4,2,13,18,33,259,,25,26,214,,21,25,316,,05,22,038,*70
$GPGSV,4,3,13,02,16,087,14,12,12,181,,24,08,160,,10,07,241,*73
$GPGSV,4,4,13,26,04,307,*4F
$GPRMC,203648.000,A,1919.6919,N,09910.8830,W,0.29,118.43,130917,,,A*7B
$GPVTG,118.43,T,,M,0.29,N,0.53,K,A*3F
$GPGGA,203649.000,1919.6916,N,09910.8829,W,1,04,3.13,2283.2,M,-9.0,M,,*5E
$GPGSA,A,3,29,15,02,13,,,,,,,,,3.28,3.13,0.98*04
$GPRMC,203649.000,A,1919.6916,N,09910.8829,W,0.19,107.92,130917,,,A*7C
$GPVTG,107.92,T,,M,0.19,N,0.36,K,A*3D
$GPGGA,203650.000,1919.6916,N,09910.8829,W,1,04,3.13,2283.2,M,-9.0,M,,*56
$GPGSA,A,3,29,15,02,13,,,,,,,,,3.28,3.13,0.98*04
$GPRMC,203650.000,A,1919.6916,N,09910.8829,W,0.58,115.92,130917,,,A*72
$GPVTG,115.92,T,,M,0.58,N,1.07,K,A*38
$GPGGA,203651.000,1919.6915,N,09910.8827,W,1,04,3.14,2283.2,M,-9.0,M,,*5D
$GPGSA,A,3,29,15,02,13,,,,,,,,,3.29,3.14,0.98*02
$GPRMC,203651.000,A,1919.6915,N,09910.8827,W,0.50,71.70,130917,,,A*49
$GPVTG,71.70,T,,M,0.50,N,0.92,K,A*02
$GPGGA,203652.000,1919.6915,N,09910.8826,W,1,04,3.14,2283.2,M,-9.0,M,,*5F
$GPGSA,A,3,29,15,02,13,,,,,,,,,3.29,3.14,0.98*02
$GPRMC,203652.000,A,1919.6915,N,09910.8826,W,0.58,58.94,130917,,,A*42
$GPVTG,58.94,T,,M,0.58,N,1.08,K,A*09
$GPGGA,203653.000,1919.6916,N,09910.8824,W,1,04,3.14,2283.2,M,-9.0,M,,*5F
$GPGSA,A,3,29,15,02,13,,,,,,,,,3.29,3.14,0.98*02
$GPGSV,4,1,13,29,80,345,16,15,65,128,30,20,57,355,15,13,43,074,22*76
$GPGSV,4,2,13,18,33,259,,25,26,214,,21,25,316,,05,22,038,*70
$GPGSV,4,3,13,02,16,087,14,12,12,181,,24,08,160,,10,07,241,*73
$GPGSV,4,4,13,26,04,307,*4F
$GPRMC,203653.000,A,1919.6916,N,09910.8824,W,1.16,98.96,130917,,,A*47
$GPVTG,98.96,T,,M,1.16,N,2.14,K,A*02
$GPGGA,203654.000,1919.6905,N,09910.8812,W,1,04,3.14,2283.2,M,-9.0,M,,*5F
$GPGSA,A,3,29,15,02,13,,,,,,,,,3.29,3.14,0.98*02
$GPRMC,203654.000,A,1919.6905,N,09910.8812,W,1.65,109.40,130917,,,A*71
$GPVTG,109.40,T,,M,1.65,N,3.06,K,A*36
$GPGGA,203655.000,1919.6898,N,09910.8802,W,1,04,3.14,2283.2,M,-9.0,M,,*5A
$GPGSA,A,3,29,15,02,13,,,,,,,,,3.29,3.14,0.98*02
$GPRMC,203655.000,A,1919.6898,N,09910.8802,W,1.52,99.09,130917,,,A*45
$GPVTG,99.09,T,,M,1.52,N,2.82,K,A*0A
$GPGGA,203656.000,1919.6893,N,09910.8796,W,1,04,3.14,2283.2,M,-9.0,M,,*50
$GPGSA,A,3,29,15,02,13,,,,,,,,,3.29,3.14,0.98*02
$GPRMC,203656.000,A,1919.6893,N,09910.8796,W,1.11,86.93,130917,,,A*45
$GPVTG,86.93,T,,M,1.11,N,2.06,K,A*0C
$GPGGA,203657.000,1919.6887,N,09910.8791,W,1,04,3.14,2283.3,M,-9.0,M,,*52
$GPGSA,A,3,29,15,02,13,,,,,,,,,3.29,3.14,0.98*02
$GPRMC,203657.000,A,1919.6887,N,09910.8791,W,1.15,82.02,130917,,,A*4E
$GPVTG,82.02,T,,M,1.15,N,2.13,K,A*00
$GPGGA,203658.000,1919.6880,N,09910.8793,W,1,04,3.14,2283.3,M,-9.0,M,,*58
$GPGSA,A,3,29,15,02,13,,,,,,,,,3.29,3.14,0.98*02
$GPGSV,4,1,13,29,80,345,15,15,65,128,30,20,56,355,14,13,43,074,23*74
$GPGSV,4,2,13,18,33,259,,25,26,214,,21,25,316,,05,22,038,*70
$GPGSV,4,3,13,02,16,087,14,12,12,181,,24,08,160,,10,07,241,*73
$GPGSV,4,4,13,26,04,307,*4F
$GPRMC,203658.000,A,1919.6880,N,09910.8793,W,1.01,93.28,130917,,,A*49
$GPVTG,93.28,T,,M,1.01,N,1.87,K,A*03
$GPGGA,203659.000,1919.6874,N,09910.8794,W,1,04,3.14,2283.3,M,-9.0,M,,*55
$GPGSA,A,3,29,15,02,13,,,,,,,,,3.29,3.14,0.98*02
$GPRMC,203659.000,A,1919.6874,N,09910.8794,W,0.98,105.63,130917,,,A*74
$GPVTG,105.63,T,,M,0.98,N,1.81,K,A*35
$GPGGA,203700.000,1919.6869,N,09910.8795,W,1,04,3.14,2283.3,M,-9.0,M,,*55
$GPGSA,A,3,29,15,02,13,,,,,,,,,3.29,3.14,0.98*02
$GPRMC,203700.000,A,1919.6869,N,09910.8795,W,0.88,99.14,130917,,,A*41
$GPVTG,99.14,T,,M,0.88,N,1.63,K,A*0C
$GPGGA,203701.000,1919.6861,N,09910.8798,W,1,04,3.14,2283.3,M,-9.0,M,,*51
$GPGSA,A,3,29,15,02,13,,,,,,,,,3.29,3.14,0.98*02
$GPRMC,203701.000,A,1919.6861,N,09910.8798,W,0.76,87.27,130917,,,A*4B
$GPVTG,87.27,T,,M,0.76,N,1.41,K,A*02
$GPGGA,203702.000,1919.6858,N,09910.8799,W,1,04,3.14,2283.3,M,-9.0,M,,*59
$GPGSA,A,3,29,15,02,13,,,,,,,,,3.29,3.14,0.98*02
$GPRMC,203702.000,A,1919.6858,N,09910.8799,W,0.71,79.02,130917,,,A*42
$GPVTG,79.02,T,,M,0.71,N,1.32,K,A*07
$GPGGA,203703.000,1919.6856,N,09910.8812,W,1,04,3.14,2283.5,M,-9.0,M,,*5C
$GPGSA,A,3,29,15,02,13,,,,,,,,,3.29,3.14,0.98*02
$GPGSV,4,1,13,29,80,345,14,15,65,128,29,20,56,355,13,13,43,074,23*7A
$GPGSV,4,2,13,18,33,259,,25,26,214,,21,25,316,,05,22,038,*70
$GPGSV,4,3,13,02,16,087,16,12,12,181,,24,08,160,,10,07,241,*71
$GPGSV,4,4,13,26,04,307,*4F
$GPRMC,203703.000,A,1919.6856,N,09910.8812,W,0.27,86.00,130917,,,A*40
$GPVTG,86.00,T,,M,0.27,N,0.51,K,A*02
$GPGGA,203704.000,1919.6857,N,09910.8817,W,1,04,3.14,2283.4,M,-9.0,M,,*5E
$GPGSA,A,3,29,15,02,13,,,,,,,,,3.29,3.14,0.98*02
$GPRMC,203704.000,A,1919.6857,N,09910.8817,W,0.32,148.51,130917,,,A*70
$GPVTG,148.51,T,,M,0.32,N,0.59,K,A*39
$GPGGA,203705.000,1919.6862,N,09910.8823,W,1,04,3.15,2283.1,M,-9.0,M,,*5A
$GPGSA,A,3,29,15,02,13,,,,,,,,,3.29,3.15,0.98*03
$GPRMC,203705.000,A,1919.6862,N,09910.8823,W,0.62,290.87,130917,,,A*78
$GPVTG,290.87,T,,M,0.62,N,1.14,K,A*39
$GPGGA,203706.000,1919.6868,N,09910.8844,W,1,04,3.15,2283.3,M,-9.0,M,,*50
$GPGSA,A,3,29,15,02,13,,,,,,,,,3.30,3.15,0.98*0B
$GPRMC,203706.000,A,1919.6868,N,09910.8844,W,1.17,299.64,130917,,,A*77
$GPVTG,299.64,T,,M,1.17,N,2.17,K,A*3E
$GPGGA,203707.000,1919.6874,N,09910.8862,W,1,04,3.15,2283.6,M,-9.0,M,,*5D
$GPGSA,A,3,29,15,02,13,,,,,,,,,3.30,3.15,0.98*0B
$GPRMC,203707.000,A,1919.6874,N,09910.8862,W,1.44,306.42,130917,,,A*7A
$GPVTG,306.42,T,,M,1.44,N,2.67,K,A*3C
$GPGGA,203708.000,1919.6871,N,09910.8866,W,1,04,3.15,2283.7,M,-9.0,M,,*52
$GPGSA,A,3,29,15,02,13,,,,,,,,,3.30,3.15,0.98*0B
$GPGSV,4,1,13,29,81,345,17,15,65,128,29,20,56,355,13,13,43,074,21*7A
$GPGSV,4,2,13,18,33,259,,25,26,214,,21,25,316,,05,22,038,*70
$GPGSV,4,3,13,02,16,087,17,12,12,181,,24,08,160,,10,07,241,*70
$GPGSV,4,4,13,26,04,307,*4F
$GPRMC,203708.000,A,1919.6871,N,09910.8866,W,1.69,310.58,130917,,,A*77
$GPVTG,310.58,T,,M,1.69,N,3.13,K,A*3D
$GPGGA,203709.000,1919.6870,N,09910.8871,W,1,04,3.15,2283.8,M,-9.0,M,,*5B
$GPGSA,A,3,29,15,02,13,,,,,,,,,3.30,3.15,0.98*0B
$GPRMC,203709.000,A,1919.6870,N,09910.8871,W,1.51,318.58,130917,,,A*72
$GPVTG,318.58,T,,M,1.51,N,2.80,K,A*35
$GPGGA,203710.000,1919.6868,N,09910.8874,W,1,04,3.15,2284.0,M,-9.0,M,,*50
$GPGSA,A,3,29,15,02,13,,,,,,,,,3.30,3.15,0.98*0B
$GPRMC,203710.000,A,1919.6868,N,09910.8874,W,1.65,325.17,130917,,,A*74
$GPVTG,325.17,T,,M,1.65,N,3.06,K,A*38
$GPGGA,203711.000,1919.6868,N,09910.8879,W,1,04,3.15,2284.1,M,-9.0,M,,*5D
$GPGSA,A,3,29,15,02,13,,,,,,,,,3.30,3.15,0.98*0B
$GPRMC,203711.000,A,1919.6868,N,09910.8879,W,1.69,330.41,130917,,,A*73
$GPVTG,330.41,T,,M,1.69,N,3.13,K,A*37
$GPGGA,203712.000,1919.6867,N,09910.8884,W,1,04,3.15,2284.2,M,-9.0,M,,*50
$GPGSA,A,3,29,15,02,13,,,,,,,,,3.30,3.15,0.98*0B
$GPRMC,203712.000,A,1919.6867,N,09910.8884,W,1.68,330.32,130917,,,A*78
$GPVTG,330.32,T,,M,1.68,N,3.11,K,A*30
$GPGGA,203713.000,1919.6859,N,09910.8879,W,1,04,3.15,2284.3,M,-9.0,M,,*5F
$GPGSA,A,3,29,15,02,13,,,,,,,,,3.30,3.15,0.98*0B
$GPGSV,4,1,13,29,81,345,16,15,65,128,29,20,56,355,12,13,43,074,22*79
$GPGSV,4,2,13,18,33,259,,25,26,214,,21,25,316,,05,22,038,*70
$GPGSV,4,3,13,02,16,087,18,12,12,181,,24,08,160,,10,07,241,*7F
$GPGSV,4,4,13,26,04,307,*4F
$GPRMC,203713.000,A,1919.6859,N,09910.8879,W,1.45,335.21,130917,,,A*7E
$GPVTG,335.21,T,,M,1.45,N,2.69,K,A*36
$GPGGA,203714.000,1919.6851,N,09910.8879,W,1,04,3.15,2284.5,M,-9.0,M,,*56
$GPGSA,A,3,29,15,02,13,,,,,,,,,3.30,3.15,0.98*0B
$GPRMC,203714.000,A,1919.6851,N,09910.8879,W,0.78,333.31,130917,,,A*79
$GPVTG,333.31,T,,M,0.78,N,1.44,K,A*32
$GPGGA,203715.000,1919.6848,N,09910.8881,W,1,04,3.15,2284.6,M,-9.0,M,,*5B
$GPGSA,A,3,29,15,02,13,,,,,,,,,3.30,3.15,0.98*0B
$GPRMC,203715.000,A,1919.6848,N,09910.8881,W,0.93,332.58,130917,,,A*7C
$GPVTG,332.58,T,,M,0.93,N,1.71,K,A*3F
$GPGGA,203716.000,1919.6847,N,09910.8883,W,1,04,3.15,2284.7,M,-9.0,M,,*54
$GPGSA,A,3,29,15,02,13,,,,,,,,,3.30,3.15,0.98*0B
$GPRMC,203716.000,A,1919.6847,N,09910.8883,W,1.28,334.27,130917,,,A*7D
$GPVTG,334.27,T,,M,1.28,N,2.37,K,A*31
$GPGGA,203717.000,1919.6844,N,09910.8885,W,1,04,3.15,2284.8,M,-9.0,M,,*5F
$GPGSA,A,3,29,15,02,13,,,,,,,,,3.30,3.15,0.98*0B
$GPRMC,203717.000,A,1919.6844,N,09910.8885,W,0.94,324.60,130917,,,A*7D
$GPVTG,324.60,T,,M,0.94,N,1.75,K,A*30
$GPGGA,203718.000,1919.6841,N,09910.8888,W,1,04,3.16,2284.8,M,-9.0,M,,*5B
$GPGSA,A,3,29,15,02,13,,,,,,,,,3.30,3.16,0.98*08
$GPGSV,4,1,13,29,81,345,16,15,65,128,28,20,56,355,,13,43,074,22*7B
$GPGSV,4,2,13,18,33,259,,25,26,214,,21,25,316,,05,22,038,*70
$GPGSV,4,3,13,02,16,088,19,12,12,181,,24,08,160,,10,07,241,*71
$GPGSV,4,4,13,26,04,307,*4F
$GPRMC,203718.000,A,1919.6841,N,09910.8888,W,1.06,315.64,130917,,,A*76
$GPVTG,315.64,T,,M,1.06,N,1.96,K,A*31
$GPGGA,203719.000,1919.6843,N,09910.8892,W,1,04,3.16,2284.9,M,-9.0,M,,*52
$GPGSA,A,3,29,15,02,13,,,,,,,,,3.31,3.16,0.98*09
$GPRMC,203719.000,A,1919.6843,N,09910.8892,W,1.45,321.58,130917,,,A*71
$GPVTG,321.58,T,,M,1.45,N,2.69,K,A*3D
$GPGGA,203720.000,1919.6845,N,09910.8897,W,1,04,3.16,2285.0,M,-9.0,M,,*53
$GPGSA,A,3,29,15,02,13,,,,,,,,,3.31,3.16,0.98*09
$GPRMC,203720.000,A,1919.6845,N,09910.8897,W,1.72,326.69,130917,,,A*79
$GPVTG,326.69,T,,M,1.72,N,3.18,K,A*3B
$GPGGA,203721.000,1919.6849,N,09910.8905,W,1,04,3.16,2285.0,M,-9.0,M,,*54
$GPGSA,A,3,29,15,02,13,,,,,,,,,3.31,3.16,0.98*09
$GPRMC,203721.000,A,1919.6849,N,09910.8905,W,1.44,324.79,130917,,,A*78
$GPVTG,324.79,T,,M,1.44,N,2.68,K,A*3B
$GPGGA,203722.000,1919.6848,N,09910.8907,W,1,04,3.16,2285.1,M,-9.0,M,,*55
$GPGSA,A,3,29,15,02,13,,,,,,,,,3.31,3.16,0.98*09
$GPRMC,203722.000,A,1919.6848,N,09910.8907,W,1.28,325.49,130917,,,A*70
$GPVTG,325.49,T,,M,1.28,N,2.38,K,A*36
$GPGGA,203723.000,1919.6847,N,09910.8907,W,1,04,3.16,2285.1,M,-9.0,M,,*5B
$GPGSA,A,3,29,15,02,13,,,,,,,,,3.31,3.16,0.98*09
$GPGSV,4,1,13,29,81,345,16,15,65,128,28,20,56,355,13,13,43,074,22*79
$GPGSV,4,2,13,18,33,259,,25,26,214,,21,25,316,,05,22,038,*70
$GPGSV,4,3,13,02,16,088,19,12,12,181,,24,08,160,,10,07,241,*71
$GPGSV,4,4,13,26,04,307,*4F
$GPRMC,203723.000,A,1919.6847,N,09910.8907,W,1.27,327.46,130917,,,A*7C
$GPVTG,327.46,T,,M,1.27,N,2.35,K,A*39
$GPGGA,203724.000,1919.6843,N,09910.8908,W,1,04,3.16,2285.2,M,-9.0,M,,*54
$GPGSA,A,3,29,15,02,13,,,,,,,,,3.31,3.16,0.98*09
$GPRMC,203724.000,A,1919.6843,N,09910.8908,W,1.06,316.63,130917,,,A*76
$GPVTG,316.63,T,,M,1.06,N,1.97,K,A*34
$GPGGA,203725.000,1919.6835,N,09910.8908,W,1,05,2.06,2285.2,M,-9.0,M,,*55
$GPGSA,A,3,29,05,15,02,13,,,,,,,,2.28,2.06,0.98*05
$GPRMC,203725.000,A,1919.6835,N,09910.8908,W,0.87,260.40,130917,,,A*7F
$GPVTG,260.40,T,,M,0.87,N,1.61,K,A*34
$GPGGA,203726.000,1919.6830,N,09910.8907,W,1,05,2.06,2285.3,M,-9.0,M,,*5D
$GPGSA,A,3,29,05,15,02,13,,,,,,,,2.28,2.06,0.98*05
$GPRMC,203726.000,A,1919.6830,N,09910.8907,W,0.53,252.90,130917,,,A*73
$GPVTG,252.90,T,,M,0.53,N,0.99,K,A*37
$GPGGA,203727.000,1919.6837,N,09910.8915,W,1,05,2.06,2284.9,M,-9.0,M,,*53
$GPGSA,A,3,29,05,15,02,13,,,,,,,,2.28,2.06,0.98*05
$GPRMC,203727.000,A,1919.6837,N,09910.8915,W,0.19,276.36,130917,,,A*72
$GPVTG,276.36,T,,M,0.19,N,0.36,K,A*36
$GPGGA,203728.000,1919.6842,N,09910.8922,W,1,05,2.06,2284.8,M,-9.0,M,,*5B
$GPGSA,A,3,29,05,15,02,13,,,,,,,,2.28,2.06,0.98*05
$GPGSV,4,1,13,29,81,345,17,15,65,128,28,20,56,355,14,13,43,073,20*7A
$GPGSV,4,2,13,18,33,259,,25,26,214,,21,25,316,,05,22,038,20*72
$GPGSV,4,3,13,02,16,088,20,12,12,180,,24,08,160,,10,07,241,*7A
$GPGSV,4,4,13,26,04,307,*4F
$GPRMC,203728.000,A,1919.6842,N,09910.8922,W,0.18,263.70,130917,,,A*7C
$GPVTG,263.70,T,,M,0.18,N,0.33,K,A*34
$GPGGA,203729.000,1919.6843,N,09910.8924,W,1,05,2.06,2284.7,M,-9.0,M,,*52
$GPGSA,A,3,29,05,15,02,13,,,,,,,,2.28,2.06,0.98*05
$GPRMC,203729.000,A,1919.6843,N,09910.8924,W,0.28,219.64,130917,,,A*71
$GPVTG,219.64,T,,M,0.28,N,0.52,K,A*38
$GPGGA,203730.000,1919.6842,N,09910.8925,W,1,05,2.06,2284.7,M,-9.0,M,,*5A
$GPGSA,A,3,29,05,15,02,13,,,,,,,,2.28,2.06,0.98*05
$GPRMC,203730.000,A,1919.6842,N,09910.8925,W,0.36,136.03,130917,,,A*79
$GPVTG,136.03,T,,M,0.36,N,0.66,K,A*3F
$GPGGA,203731.000,1919.6841,N,09910.8924,W,1,05,2.06,2284.7,M,-9.0,M,,*59
$GPGSA,A,3,29,05,15,02,13,,,,,,,,2.28,2.06,0.98*05
$GPRMC,203731.000,A,1919.6841,N,09910.8924,W,0.53,112.14,130917,,,A*79
$GPVTG,112.14,T,,M,0.53,N,0.98,K,A*3D
$GPGGA,203732.000,1919.6841,N,09910.8922,W,1,05,2.06,2284.7,M,-9.0,M,,*5C
$GPGSA,A,3,29,05,15,02,13,,,,,,,,2.28,2.06,0.98*05
$GPRMC,203732.000,A,1919.6841,N,09910.8922,W,0.93,125.77,130917,,,A*71
$GPVTG,125.77,T,,M,0.93,N,1.73,K,A*34
$GPGGA,203733.000,1919.6845,N,09910.8923,W,1,05,2.06,2284.6,M,-9.0,M,,*59
$GPGSA,A,3,29,05,15,02,13,,,,,,,,2.28,2.06,0.98*05
$GPGSV,4,1,13,29,81,345,17,15,65,128,28,20,56,356,14,13,43,073,19*73
$GPGSV,4,2,13,18,33,259,,25,26,214,,21,25,316,,05,22,038,21*73
$GPGSV,4,3,13,02,16,088,20,12,12,180,,24,08,160,,10,07,241,*7A
$GPGSV,4,4,13,26,04,307,*4F
$GPRMC,203733.000,A,1919.6845,N,09910.8923,W,0.80,100.34,130917,,,A*77
$GPVTG,100.34,T,,M,0.80,N,1.48,K,A*3E
$GPGGA,203734.000,1919.6854,N,09910.8926,W,1,05,2.06,2284.6,M,-9.0,M,,*5B
$GPGSA,A,3,29,05,15,02,13,,,,,,,,2.28,2.06,0.98*05
$GPRMC,203734.000,A,1919.6854,N,09910.8926,W,0.90,25.28,130917,,,A*4F
$GPVTG,25.28,T,,M,0.90,N,1.67,K,A*09
$GPGGA,203735.000,1919.6862,N,09910.8929,W,1,05,2.06,2284.6,M,-9.0,M,,*50
$GPGSA,A,3,29,05,15,02,13,,,,,,,,2.28,2.06,0.98*05
$GPRMC,203735.000,A,1919.6862,N,09910.8929,W,1.04,15.28,130917,,,A*4B
$GPVTG,15.28,T,,M,1.04,N,1.93,K,A*0D
$GPGGA,203736.000,1919.6865,N,09910.8933,W,1,05,2.06,2284.5,M,-9.0,M,,*5C
$GPGSA,A,3,29,05,15,02,13,,,,,,,,2.28,2.06,0.98*05
$GPRMC,203736.000,A,1919.6865,N,09910.8933,W,0.35,32.31,130917,,,A*4A
$GPVTG,32.31,T,,M,0.35,N,0.66,K,A*08
$GPGGA,203737.000,1919.6868,N,09910.8936,W,1,05,2.06,2284.5,M,-9.0,M,,*55
$GPGSA,A,3,29,05,15,02,13,,,,,,,,2.28,2.06,0.98*05
$GPRMC,203737.000,A,1919.6868,N,09910.8936,W,0.21,355.88,130917,,,A*76
$GPVTG,355.88,T,,M,0.21,N,0.38,K,A*36
$GPGGA,203738.000,1919.6870,N,09910.8941,W,1,05,3.95,2284.5,M,-9.0,M,,*58
$GPGSA,A,3,29,05,15,02,13,,,,,,,,6.02,3.95,4.55*07
$GPGSV,4,1,13,29,81,345,17,15,65,128,28,20,56,356,16,13,43,073,19*71
$GPGSV,4,2,13,18,33,259,,25,26,214,,21,25,316,,05,22,038,22*70
$GPGSV,4,3,13,02,16,088,20,12,12,180,,24,08,160,,10,07,241,*7A
$GPGSV,4,4,13,26,04,307,*4F
$GPRMC,203738.000,A,1919.6870,N,09910.8941,W,0.24,275.21,130917,,,A*75
$GPVTG,275.21,T,,M,0.24,N,0.44,K,A*38
$GPGGA,203739.000,1919.6871,N,09910.8943,W,1,05,2.06,2284.5,M,-9.0,M,,*51
$GPGSA,A,3,29,05,15,02,13,,,,,,,,2.28,2.06,0.98*05
$GPRMC,203739.000,A,1919.6871,N,09910.8943,W,0.45,253.16,130917,,,A*70
$GPVTG,253.16,T,,M,0.45,N,0.83,K,A*34
$GPGGA,203740.000,1919.6870,N,09910.8944,W,1,05,2.06,2284.5,M,-9.0,M,,*59
$GPGSA,A,3,29,05,15,02,13,,,,,,,,2.28,2.06,0.98*05
$GPRMC,203740.000,A,1919.6870,N,09910.8944,W,0.48,249.22,130917,,,A*79
$GPVTG,249.22,T,,M,0.48,N,0.89,K,A*3F
$GPGGA,203741.000,1919.6870,N,09910.8946,W,1,05,2.06,2284.5,M,-9.0,M,,*5A
$GPGSA,A,3,29,05,15,02,13,,,,,,,,2.28,2.06,0.98*05
$GPRMC,203741.000,A,1919.6870,N,09910.8946,W,0.83,196.00,130917,,,A*7C
$GPVTG,196.00,T,,M,0.83,N,1.54,K,A*38
$GPGGA,203742.000,1919.6865,N,09910.8942,W,1,05,2.06,2284.5,M,-9.0,M,,*59
$GPGSA,A,3,29,05,15,02,13,,,,,,,,2.28,2.06,0.98*05
$GPRMC,203742.000,A,1919.6865,N,09910.8942,W,1.02,171.22,130917,,,A*7E
$GPVTG,171.22,T,,M,1.02,N,1.89,K,A*39
$GPGGA,203743.000,1919.6861,N,09910.8941,W,1,05,2.06,2284.5,M,-9.0,M,,*5F
$GPGSA,A,3,29,05,15,02,13,,,,,,,,2.28,2.06,0.98*05
$GPGSV,4,1,13,29,81,345,17,15,65,128,28,20,56,356,18,13,43,073,18*7E
$GPGSV,4,2,13,18,33,259,,25,26,214,,21,25,316,,05,22,038,22*70
$GPGSV,4,3,13,02,16,088,19,12,12,180,,24,08,160,,10,07,241,*70
$GPGSV,4,4,13,26,04,307,*4F
$GPRMC,203743.000,A,1919.6861,N,09910.8941,W,1.03,171.81,130917,,,A*70
$GPVTG,171.81,T,,M,1.03,N,1.91,K,A*38
$GPGGA,203744.000,1919.6860,N,09910.8940,W,1,05,2.07,2284.5,M,-9.0,M,,*59
$GPGSA,A,3,29,05,15,02,13,,,,,,,,2.28,2.07,0.98*04
$GPRMC,203744.000,A,1919.6860,N,09910.8940,W,0.71,195.09,130917,,,A*79
$GPVTG,195.09,T,,M,0.71,N,1.31,K,A*3C
$GPGGA,203745.000,1919.6857,N,09910.8940,W,1,05,2.07,2284.5,M,-9.0,M,,*5C
$GPGSA,A,3,29,05,15,02,13,,,,,,,,2.28,2.07,0.98*04
$GPRMC,203745.000,A,1919.6857,N,09910.8940,W,0.77,200.82,130917,,,A*76
$GPVTG,200.82,T,,M,0.77,N,1.42,K,A*32
$GPGGA,203746.000,1919.6853,N,09910.8941,W,1,05,2.07,2284.4,M,-9.0,M,,*5B
$GPGSA,A,3,29,05,15,02,13,,,,,,,,2.28,2.07,0.98*04
$GPRMC,203746.000,A,1919.6853,N,09910.8941,W,1.14,195.28,130917,,,A*7B
$GPVTG,195.28,T,,M,1.14,N,2.12,K,A*3F
$GPGGA,203747.000,1919.6850,N,09910.8942,W,1,05,2.07,2284.4,M,-9.0,M,,*5A
$GPGSA,A,3,29,05,15,02,13,,,,,,,,2.28,2.07,0.98*04
$GPRMC,203747.000,A,1919.6850,N,09910.8942,W,1.10,198.57,130917,,,A*7B
$GPVTG,198.57,T,,M,1.10,N,2.04,K,A*39
$GPGGA,203748.000,1919.6850,N,09910.8942,W,1,05,2.07,2284.4,M,-9.0,M,,*55
$GPGSA,A,3,29,05,15,02,13,,,,,,,,2.29,2.07,0.98*05
$GPGSV,4,1,13,29,81,345,17,15,65,128,28,20,56,356,19,13,43,073,19*7E
$GPGSV,4,2,13,18,33,259,,25,26,214,,21,25,316,,05,22,038,22*70
$GPGSV,4,3,13,02,16,088,18,12,12,180,,24,08,160,,10,07,241,*71
$GPGSV,4,4,13,26,04,307,*4F
$GPRMC,203748.000,A,1919.6850,N,09910.8942,W,0.67,217.53,130917,,,A*75
$GPVTG,217.53,T,,M,0.67,N,1.24,K,A*39
$GPGGA,203749.000,1919.6848,N,09910.8942,W,1,05,2.07,2284.3,M,-9.0,M,,*5A
$GPGSA,A,3,29,05,15,02,13,,,,,,,,2.29,2.07,0.98*05
$GPRMC,203749.000,A,1919.6848,N,09910.8942,W,0.58,189.32,130917,,,A*72
$GPVTG,189.32,T,,M,0.58,N,1.07,K,A*37
$GPGGA,203750.000,1919.6849,N,09910.8942,W,1,05,2.07,2284.3,M,-9.0,M,,*53
$GPGSA,A,3,29,05,15,02,13,,,,,,,,2.29,2.07,0.98*05
$GPRMC,203750.000,A,1919.6849,N,09910.8942,W,0.53,285.25,130917,,,A*79
$GPVTG,285.25,T,,M,0.53,N,0.98,K,A*32
$GPGGA,203751.000,1919.6846,N,09910.8943,W,1,05,2.07,2284.2,M,-9.0,M,,*5D
$GPGSA,A,3,29,05,15,02,13,,,,,,,,2.29,2.07,0.98*05
$GPRMC,203751.000,A,1919.6846,N,09910.8943,W,0.50,245.71,130917,,,A*78
$GPVTG,245.71,T,,M,0.50,N,0.92,K,A*36
$GPGGA,203752.000,1919.6845,N,09910.8944,W,1,05,2.07,2284.1,M,-9.0,M,,*59
$GPGSA,A,3,29,05,15,02,13,,,,,,,,2.29,2.07,0.98*05
$GPRMC,203752.000,A,1919.6845,N,09910.8944,W,0.53,205.09,130917,,,A*77
$GPVTG,205.09,T,,M,0.53,N,0.98,K,A*34
$GPGGA,203753.000,1919.6843,N,09910.8944,W,1,05,2.07,2284.1,M,-9.0,M,,*5E
$GPGSA,A,3,29,05,15,02,13,,,,,,,,2.29,2.07,0.98*05
$GPGSV,4,1,13,29,81,345,16,15,65,128,30,20,56,356,20,13,43,073,18*7D
$GPGSV,4,2,13,18,33,259,,25,26,214,,21,25,316,,05,21,038,22*73
$GPGSV,4,3,13,02,16,088,18,12,12,180,,24,08,160,,10,07,241,*71
$GPGSV,4,4,13,26,04,307,*4F
$GPRMC,203753.000,A,1919.6843,N,09910.8944,W,0.49,191.75,130917,,,A*7E
$GPVTG,191.75,T,,M,0.49,N,0.90,K,A*32
$GPGGA,203754.000,1919.6842,N,09910.8944,W,1,05,2.07,2284.1,M,-9.0,M,,*58
$GPGSA,A,3,29,05,15,02,13,,,,,,,,2.29,2.07,0.98*05
$GPRMC,203754.000,A,1919.6842,N,09910.8944,W,0.17,187.88,130917,,,A*76
$GPVTG,187.88,T,,M,0.17,N,0.31,K,A*37
$GPGGA,203755.000,1919.6842,N,09910.8945,W,1,05,2.07,2284.1,M,-9.0,M,,*58
$GPGSA,A,3,29,05,15,02,13,,,,,,,,2.29,2.07,0.98*05
$GPRMC,203755.000,A,1919.6842,N,09910.8945,W,0.22,273.45,130917,,,A*79
$GPVTG,273.45,T,,M,0.22,N,0.41,K,A*3F
$GPGGA,203756.000,1919.6842,N,09910.8945,W,1,05,2.07,2284.1,M,-9.0,M,,*5B
$GPGSA,A,3,29,05,15,02,13,,,,,,,,2.29,2.07,0.98*05
$GPRMC,203756.000,A,1919.6842,N,09910.8945,W,0.20,205.95,130917,,,A*74
$GPVTG,205.95,T,,M,0.20,N,0.37,K,A*30
$GPGGA,203757.000,1919.6841,N,09910.8946,W,1,05,2.07,2284.1,M,-9.0,M,,*5A
$GPGSA,A,3,29,05,15,02,13,,,,,,,,2.29,2.07,0.98*05
$GPRMC,203757.000,A,1919.6841,N,09910.8946,W,0.23,282.50,130917,,,A*70
$GPVTG,282.50,T,,M,0.23,N,0.43,K,A*36
$GPGGA,203758.000,1919.6841,N,09910.8946,W,1,05,2.07,2284.1,M,-9.0,M,,*55
$GPGSA,A,3,29,05,15,02,13,,,,,,,,2.29,2.07,0.98*05
$GPGSV,4,1,13,29,81,345,17,15,65,128,29,20,56,356,20,13,43,073,18*74
$GPGSV,4,2,13,18,33,259,,25,26,214,,21,25,316,,05,21,038,22*73
$GPGSV,4,3,13,02,16,088,18,12,12,180,,24,08,160,,10,07,241,*71
$GPGSV,4,4,13,26,04,307,*4F
$GPRMC,203758.000,A,1919.6841,N,09910.8946,W,0.41,292.96,130917,,,A*70
$GPVTG,292.96,T,,M,0.41,N,0.76,K,A*3F
$GPGGA,203759.000,1919.6842,N,09910.8947,W,1,05,2.07,2284.1,M,-9.0,M,,*56
$GPGSA,A,3,29,05,15,02,13,,,,,,,,2.29,2.07,0.98*05
$GPRMC,203759.000,A,1919.6842,N,09910.8947,W,0.62,316.77,130917,,,A*70
$GPVTG,316.77,T,,M,0.62,N,1.15,K,A*38
$GPGGA,203800.000,1919.6845,N,09910.8953,W,1,05,2.07,2284.1,M,-9.0,M,,*57
$GPGSA,A,3,29,05,15,02,13,,,,,,,,2.29,2.07,0.98*05
$GPRMC,203800.000,A,1919.6845,N,09910.8953,W,0.63,291.50,130917,,,A*7B
$GPVTG,291.50,T,,M,0.63,N,1.16,K,A*31
$GPGGA,203801.000,1919.6847,N,09910.8957,W,1,05,2.07,2284.1,M,-9.0,M,,*50
$GPGSA,A,3,29,05,15,02,13,,,,,,,,2.29,2.07,0.98*05
$GPRMC,203801.000,A,1919.6847,N,09910.8957,W,0.52,265.21,130917,,,A*73
$GPVTG,265.21,T,,M,0.52,N,0.96,K,A*37
$GPGGA,203802.000,1919.6850,N,09910.8963,W,1,05,2.07,2284.1,M,-9.0,M,,*52
$GPGSA,A,3,29,05,15,02,13,,,,,,,,2.29,2.07,0.98*05
$GPRMC,203802.000,A,1919.6850,N,09910.8963,W,0.54,271.40,130917,,,A*75
$GPVTG,271.40,T,,M,0.54,N,1.00,K,A*3D
$GPGGA,203803.000,1919.6852,N,09910.8966,W,1,05,2.07,2284.1,M,-9.0,M,,*54
$GPGSA,A,3,29,05,15,02,13,,,,,,,,2.29,2.07,0.98*05
$GPGSV,4,1,13,29,81,345,18,15,66,127,29,20,56,356,21,13,43,073,17*79
$GPGSV,4,2,13,18,33,259,,25,26,214,,21,25,316,,05,21,038,22*73
$GPGSV,4,3,13,02,16,088,17,12,11,180,,24,08,160,,10,07,241,*7D
$GPGSV,4,4,13,26,04,307,*4F
$GPRMC,203803.000,A,1919.6852,N,09910.8966,W,0.56,268.39,130917,,,A*77
$GPVTG,268.39,T,,M,0.56,N,1.05,K,A*3C
$GPGGA,203804.000,1919.6854,N,09910.8968,W,1,05,2.07,2284.0,M,-9.0,M,,*5A
$GPGSA,A,3,29,05,15,02,13,,,,,,,,2.29,2.07,0.98*05
$GPRMC,203804.000,A,1919.6854,N,09910.8968,W,0.81,281.04,130917,,,A*7B
$GPVTG,281.04,T,,M,0.81,N,1.50,K,A*3F
$GPGGA,203805.000,1919.6854,N,09910.8972,W,1,05,2.07,2284.0,M,-9.0,M,,*50
$GPGSA,A,3,29,05,15,02,13,,,,,,,,2.29,2.07,0.98*05
$GPRMC,203805.000,A,1919.6854,N,09910.8972,W,0.85,254.38,130917,,,A*72
$GPVTG,254.38,T,,M,0.85,N,1.58,K,A*34
$GPGGA,203806.000,1919.6856,N,09910.8974,W,1,05,2.07,2284.0,M,-9.0,M,,*57
$GPGSA,A,3,29,05,15,02,13,,,,,,,,2.29,2.07,0.98*05
$GPRMC,203806.000,A,1919.6856,N,09910.8974,W,0.98,269.02,130917,,,A*7E
$GPVTG,269.02,T,,M,0.98,N,1.81,K,A*3B
$GPGGA,203807.000,1919.6858,N,09910.8976,W,1,05,2.07,2284.0,M,-9.0,M,,*5A
$GPGSA,A,3,29,05,15,02,13,,,,,,,,2.29,2.07,0.98*05
$GPRMC,203807.000,A,1919.6858,N,09910.8976,W,1.10,283.08,130917,,,A*7C
$GPVTG,283.08,T,,M,1.10,N,2.05,K,A*3B
$GPGGA,203808.000,1919.6858,N,09910.8976,W,1,05,2.07,2284.0,M,-9.0,M,,*55
$GPGSA,A,3,29,05,15,02,13,,,,,,,,2.29,2.07,0.98*05
$GPGSV,4,1,13,29,81,345,18,15,66,127,29,20,56,356,20,13,43,073,16*79
$GPGSV,4,2,13,18,34,260,,25,26,214,,21,25,316,,05,21,038,22*7E
$GPGSV,4,3,13,02,16,088,16,12,11,180,,24,08,160,,10,07,241,*7C
$GPGSV,4,4,13,26,04,307,*4F
$GPRMC,203808.000,A,1919.6858,N,09910.8976,W,0.71,240.65,130917,,,A*71
$GPVTG,240.65,T,,M,0.71,N,1.32,K,A*3E
$GPGGA,203809.000,1919.6859,N,09910.8975,W,1,05,2.07,2284.0,M,-9.0,M,,*56
$GPGSA,A,3,29,05,15,02,13,,,,,,,,2.29,2.07,0.98*05
$GPRMC,203809.000,A,1919.6859,N,09910.8975,W,0.51,256.57,130917,,,A*76
$GPVTG,256.57,T,,M,0.51,N,0.94,K,A*37
$GPGGA,203810.000,1919.6862,N,09910.8976,W,1,05,2.07,2284.0,M,-9.0,M,,*55
$GPGSA,A,3,29,05,15,02,13,,,,,,,,2.29,2.07,0.98*05
$GPRMC,203810.000,A,1919.6862,N,09910.8976,W,0.45,273.54,130917,,,A*74
$GPVTG,273.54,T,,M,0.45,N,0.84,K,A*37
$GPGGA,203811.000,1919.6862,N,09910.8971,W,1,05,2.07,2284.1,M,-9.0,M,,*52
$GPGSA,A,3,29,05,15,02,13,,,,,,,,2.29,2.07,0.98*05
$GPRMC,203811.000,A,1919.6862,N,09910.8971,W,0.51,285.08,130917,,,A*77
$GPVTG,285.08,T,,M,0.51,N,0.94,K,A*33
$GPGGA,203812.000,1919.6865,N,09910.8973,W,1,05,2.07,2284.1,M,-9.0,M,,*54
$GPGSA,A,3,29,05,15,02,13,,,,,,,,2.29,2.07,0.98*05
$GPRMC,203812.000,A,1919.6865,N,09910.8973,W,1.00,298.12,130917,,,A*73
$GPVTG,298.12,T,,M,1.00,N,1.86,K,A*33
$GPGGA,203813.000,1919.6867,N,09910.8975,W,1,05,2.07,2284.1,M,-9.0,M,,*51
$GPGSA,A,3,29,05,15,02,13,,,,,,,,2.29,2.07,0.98*05
$GPGSV,4,1,13,29,81,345,18,15,66,127,29,20,56,356,20,13,43,073,15*7A
$GPGSV,4,2,13,18,34,260,,25,26,214,,21,25,316,,05,21,038,22*7E
$GPGSV,4,3,13,02,16,088,17,12,11,180,,24,08,159,,10,07,241,*77
$GPGSV,4,4,13,26,04,307,*4F
$GPRMC,203813.000,A,1919.6867,N,09910.8975,W,0.99,278.89,130917,,,A*7B
$GPVTG,278.89,T,,M,0.99,N,1.83,K,A*3B
$GPGGA,203814.000,1919.6869,N,09910.8973,W,1,05,2.07,2284.1,M,-9.0,M,,*5E
$GPGSA,A,3,29,05,15,02,13,,,,,,,,2.29,2.07,0.98*05
$GPRMC,203814.000,A,1919.6869,N,09910.8973,W,0.99,282.84,130917,,,A*7C
$GPVTG,282.84,T,,M,0.99,N,1.84,K,A*34
$GPGGA,203815.000,1919.6870,N,09910.8971,W,1,05,2.07,2284.1,M,-9.0,M,,*55
$GPGSA,A,3,29,05,15,02,13,,,,,,,,2.29,2.07,0.98*05
$GPRMC,203815.000,A,1919.6870,N,09910.8971,W,0.88,277.08,130917,,,A*79
$GPVTG,277.08,T,,M,0.88,N,1.63,K,A*33
$GPGGA,203816.000,1919.6870,N,09910.8968,W,1,05,2.07,2284.2,M,-9.0,M,,*5D
$GPGSA,A,3,29,05,15,02,13,,,,,,,,2.29,2.07,0.98*05
$GPRMC,203816.000,A,1919.6870,N,09910.8968,W,0.62,261.26,130917,,,A*7D
$GPVTG,261.26,T,,M,0.62,N,1.15,K,A*3D
$GPGGA,203817.000,1919.6868,N,09910.8966,W,1,05,2.07,2284.2,M,-9.0,M,,*5B
$GPGSA,A,3,29,05,15,02,13,,,,,,,,2.29,2.07,0.98*05
$GPRMC,203817.000,A,1919.6868,N,09910.8966,W,0.75,214.09,130917,,,A*72
$GPVTG,214.09,T,,M,0.75,N,1.39,K,A*3A
$GPGGA,203818.000,1919.6868,N,09910.8965,W,1,05,2.07,2284.3,M,-9.0,M,,*56
$GPGSA,A,3,29,05,15,02,13,,,,,,,,2.29,2.07,0.98*05
$GPGSV,4,1,13,29,81,345,18,15,66,127,29,20,56,356,20,13,43,073,16*79
$GPGSV,4,2,13,18,34,260,,25,26,214,,21,25,316,,05,21,038,22*7E
$GPGSV,4,3,13,02,16,088,17,12,11,180,,24,08,159,,10,07,241,*77
$GPGSV,4,4,13,26,04,307,*4F
$GPRMC,203818.000,A,1919.6868,N,09910.8965,W,0.51,219.02,130917,,,A*7E
$GPVTG,219.02,T,,M,0.51,N,0.94,K,A*3C
$GPGGA,203819.000,1919.6867,N,09910.8965,W,1,05,2.07,2284.3,M,-9.0,M,,*58
$GPGSA,A,3,29,05,15,02,13,,,,,,,,2.29,2.07,0.98*05
$GPRMC,203819.000,A,1919.6867,N,09910.8965,W,0.47,201.82,130917,,,A*76
$GPVTG,201.82,T,,M,0.47,N,0.86,K,A*39
$GPGGA,203820.000,1919.6864,N,09910.8960,W,1,05,2.07,2284.5,M,-9.0,M,,*52
$GPGSA,A,3,29,05,15,02,13,,,,,,,,2.29,2.07,0.98*05
$GPRMC,203820.000,A,1919.6864,N,09910.8960,W,0.36,139.51,130917,,,A*7A
$GPVTG,139.51,T,,M,0.36,N,0.67,K,A*36
$GPGGA,203821.000,1919.6862,N,09910.8953,W,1,05,2.07,2284.7,M,-9.0,M,,*57
$GPGSA,A,3,29,05,15,02,13,,,,,,,,2.29,2.07,0.98*05
$GPRMC,203821.000,A,1919.6862,N,09910.8953,W,0.65,124.27,130917,,,A*76
$GPVTG,124.27,T,,M,0.65,N,1.21,K,A*3E
$GPGGA,203822.000,1919.6861,N,09910.8944,W,1,05,2.07,2284.7,M,-9.0,M,,*51
$GPGSA,A,3,29,05,15,02,13,,,,,,,,2.29,2.07,0.98*05
$GPRMC,203822.000,A,1919.6861,N,09910.8944,W,0.69,117.29,130917,,,A*72
$GPVTG,117.29,T,,M,0.69,N,1.28,K,A*35
$GPGGA,203823.000,1919.6859,N,09910.8935,W,1,05,2.07,2284.7,M,-9.0,M,,*5D
$GPGSA,A,3,29,05,15,02,13,,,,,,,,2.29,2.07,0.98*05
$GPGSV,4,1,13,29,81,345,19,15,66,127,29,20,56,356,20,13,43,073,16*78
$GPGSV,4,2,13,18,34,260,,25,26,214,,21,25,316,,05,21,038,22*7E
$GPGSV,4,3,13,02,16,088,17,12,11,180,,24,08,159,,10,07,241,*77
$GPGSV,4,4,13,26,04,307,*4F
$GPRMC,203823.000,A,1919.6859,N,09910.8935,W,0.64,96.23,130917,,,A*41
$GPVTG,96.23,T,,M,0.64,N,1.19,K,A*08
$GPGGA,203824.000,1919.6859,N,09910.8928,W,1,05,2.07,2284.7,M,-9.0,M,,*56
$GPGSA,A,3,29,05,15,02,13,,,,,,,,2.29,2.07,0.98*05
$GPRMC,203824.000,A,1919.6859,N,09910.8928,W,0.58,98.61,130917,,,A*4D
$GPVTG,98.61,T,,M,0.58,N,1.08,K,A*0F
$GPGGA,203825.000,1919.6859,N,09910.8923,W,1,05,2.07,2284.7,M,-9.0,M,,*5C
$GPGSA,A,3,29,05,15,02,13,,,,,,,,2.29,2.07,0.98*05
$GPRMC,203825.000,A,1919.6859,N,09910.8923,W,0.42,67.99,130917,,,A*4B
$GPVTG,67.99,T,,M,0.42,N,0.78,K,A*05
$GPGGA,203826.000,1919.6859,N,09910.8916,W,1,05,2.07,2284.7,M,-9.0,M,,*59
$GPGSA,A,3,29,05,15,02,13,,,,,,,,2.29,2.07,0.98*05
$GPRMC,203826.000,A,1919.6859,N,09910.8916,W,0.77,92.14,130917,,,A*47
$GPVTG,92.14,T,,M,0.77,N,1.42,K,A*04
$GPGGA,203827.000,1919.6861,N,09910.8909,W,1,05,2.07,2284.7,M,-9.0,M,,*5D
$GPGSA,A,3,29,05,15,02,13,,,,,,,,2.29,2.07,0.98*05
$GPRMC,203827.000,A,1919.6861,N,09910.8909,W,0.77,58.54,130917,,,A*41
$GPVTG,58.54,T,,M,0.77,N,1.43,K,A*07
$GPGGA,203828.000,1919.6861,N,09910.8905,W,1,05,2.07,2284.7,M,-9.0,M,,*5E
$GPGSA,A,3,29,05,15,02,13,,,,,,,,2.29,2.07,0.98*05
$GPGSV,4,1,13,29,81,345,19,15,66,127,29,20,56,356,20,13,43,073,16*78
$GPGSV,4,2,13,18,34,260,,25,26,214,,21,25,316,,05,21,038,23*7F
$GPGSV,4,3,13,02,16,088,17,12,11,180,,24,08,159,,10,07,241,*77
$GPGSV,4,4,13,26,04,307,*4F
$GPRMC,203828.000,A,1919.6861,N,09910.8905,W,0.78,78.92,130917,,,A*45
$GPVTG,78.92,T,,M,0.78,N,1.45,K,A*06
$GPGGA,203829.000,1919.6862,N,09910.8902,W,1,05,2.07,2284.7,M,-9.0,M,,*5B
$GPGSA,A,3,29,05,15,02,13,,,,,,,,2.29,2.07,0.98*05
$GPRMC,203829.000,A,1919.6862,N,09910.8902,W,1.10,106.39,130917,,,A*76
$GPVTG,106.39,T,,M,1.10,N,2.04,K,A*36
$GPGGA,203830.000,1919.6862,N,09910.8893,W,1,05,2.07,2284.6,M,-9.0,M,,*5B
$GPGSA,A,3,29,05,15,02,13,,,,,,,,2.29,2.07,0.98*05
$GPRMC,203830.000,A,1919.6862,N,09910.8893,W,1.07,103.97,130917,,,A*70
$GPVTG,103.97,T,,M,1.07,N,1.99,K,A*36
$GPGGA,203831.000,1919.6862,N,09910.8885,W,1,05,2.07,2284.5,M,-9.0,M,,*5E
$GPGSA,A,3,29,05,15,02,13,,,,,,,,2.29,2.07,0.98*05
$GPRMC,203831.000,A,1919.6862,N,09910.8885,W,1.28,106.75,130917,,,A*72
$GPVTG,106.75,T,,M,1.28,N,2.37,K,A*35
$GPGGA,203832.000,1919.6859,N,09910.8881,W,1,05,2.07,2284.5,M,-9.0,M,,*51
$GPGSA,A,3,29,05,15,02,13,,,,,,,,2.29,2.07,0.98*05
$GPRMC,203832.000,A,1919.6859,N,09910.8881,W,1.66,125.22,130917,,,A*74
$GPVTG,125.22,T,,M,1.66,N,3.08,K,A*31
$GPGGA,203833.000,1919.6858,N,09910.8881,W,1,05,2.07,2284.5,M,-9.0,M,,*51
$GPGSA,A,3,29,05,15,02,13,,,,,,,,2.29,2.07,0.98*05
$GPGSV,4,1,13,29,81,345,19,15,66,127,29,20,56,356,20,13,43,073,17*79
$GPGSV,4,2,13,18,34,260,,25,26,214,,21,25,316,,05,21,038,23*7F
$GPGSV,4,3,13,02,16,088,17,12,11,180,,24,08,159,,10,07,242,*74
$GPGSV,4,4,13,26,04,307,*4F
$GPRMC,203833.000,A,1919.6858,N,09910.8881,W,1.11,137.48,130917,,,A*7B
$GPVTG,137.48,T,,M,1.11,N,2.06,K,A*31
$GPGGA,203834.000,1919.6857,N,09910.8880,W,1,05,2.07,2284.6,M,-9.0,M,,*5B
$GPGSA,A,3,29,05,15,02,13,,,,,,,,2.29,2.07,0.98*05
$GPRMC,203834.000,A,1919.6857,N,09910.8880,W,0.69,130.71,130917,,,A*71
$GPVTG,130.71,T,,M,0.69,N,1.28,K,A*3D
$GPGGA,203835.000,1919.6856,N,09910.8879,W,1,05,2.07,2284.6,M,-9.0,M,,*5D
$GPGSA,A,3,29,05,15,02,13,,,,,,,,2.29,2.07,0.98*05
$GPRMC,203835.000,A,1919.6856,N,09910.8879,W,0.97,131.61,130917,,,A*76
$GPVTG,131.61,T,,M,0.97,N,1.80,K,A*3E
$GPGGA,203836.000,1919.6857,N,09910.8879,W,1,05,2.07,2284.6,M,-9.0,M,,*5F
$GPGSA,A,3,29,05,15,02,13,,,,,,,,2.29,2.07,0.98*05
$GPRMC,203836.000,A,1919.6857,N,09910.8879,W,0.70,130.63,130917,,,A*7E
$GPVTG,130.63,T,,M,0.70,N,1.30,K,A*3F
$GPGGA,203837.000,1919.6857,N,09910.8880,W,1,05,2.07,2284.6,M,-9.0,M,,*58
$GPGSA,A,3,29,05,15,02,13,,,,,,,,2.29,2.07,0.98*05
$GPRMC,203837.000,A,1919.6857,N,09910.8880,W,0.85,136.29,130917,,,A*7B
$GPVTG,136.29,T,,M,0.85,N,1.57,K,A*3C
$GPGGA,203838.000,1919.6856,N,09910.8884,W,1,05,2.07,2284.6,M,-9.0,M,,*52
$GPGSA,A,3,29,05,15,02,13,,,,,,,,2.29,2.07,0.98*05
$GPGSV,4,1,13,29,81,345,18,15,66,126,29,20,56,356,20,13,43,072,16*79
$GPGSV,4,2,13,18,34,260,,25,26,214,,21,25,316,,05,21,038,21*7D
$GPGSV,4,3,13,02,16,088,18,12,11,180,,24,08,159,,10,07,242,*7B
$GPGSV,4,4,13,26,04,307,*4F
$GPRMC,203838.000,A,1919.6856,N,09910.8884,W,0.82,156.74,130917,,,A*78
$GPVTG,156.74,T,,M,0.82,N,1.51,K,A*33
$GPGGA,203839.000,1919.6855,N,09910.8885,W,1,05,2.07,2284.6,M,-9.0,M,,*51
$GPGSA,A,3,29,05,15,02,13,,,,,,,,2.29,2.07,0.98*05
$GPRMC,203839.000,A,1919.6855,N,09910.8885,W,0.95,175.01,130917,,,A*7E
$GPVTG,175.01,T,,M,0.95,N,1.76,K,A*33
$GPGGA,203840.000,1919.6856,N,09910.8887,W,1,05,2.08,2284.6,M,-9.0,M,,*51
$GPGSA,A,3,29,05,15,02,13,,,,,,,,2.29,2.08,0.98*0A
$GPRMC,203840.000,A,1919.6856,N,09910.8887,W,0.75,186.02,130917,,,A*70
$GPVTG,186.02,T,,M,0.75,N,1.38,K,A*38
$GPGGA,203841.000,1919.6856,N,09910.8890,W,1,05,2.07,2284.6,M,-9.0,M,,*59
$GPGSA,A,3,29,05,15,02,13,,,,,,,,2.29,2.07,0.98*05
$GPRMC,203841.000,A,1919.6856,N,09910.8890,W,0.73,183.84,130917,,,A*7A
$GPVTG,183.84,T,,M,0.73,N,1.36,K,A*3B
$GPGGA,203842.000,1919.6859,N,09910.8901,W,1,05,2.07,2284.6,M,-9.0,M,,*5C
$GPGSA,A,3,29,05,15,02,13,,,,,,,,2.29,2.07,0.98*05
$GPRMC,203842.000,A,1919.6859,N,09910.8901,W,0.59,244.63,130917,,,A*76
$GPVTG,244.63,T,,M,0.59,N,1.10,K,A*36
$GPGGA,203843.000,1919.6863,N,09910.8911,W,1,05,2.07,2284.5,M,-9.0,M,,*56
$GPGSA,A,3,29,05,15,02,13,,,,,,,,2.29,2.07,0.98*05
$GPGSV,4,1,13,29,81,345,16,15,66,126,29,20,56,356,20,13,43,072,17*76
$GPGSV,4,2,13,18,34,260,,25,26,214,,21,25,316,,05,21,038,21*7D
$GPGSV,4,3,13,02,16,088,17,12,11,180,,24,08,159,,10,07,242,*74
$GPGSV,4,4,13,26,04,307,*4F
$GPRMC,203843.000,A,1919.6863,N,09910.8911,W,0.90,275.85,130917,,,A*70
$GPVTG,275.85,T,,M,0.90,N,1.66,K,A*38
$GPGGA,203844.000,1919.6869,N,09910.8920,W,1,05,2.07,2284.5,M,-9.0,M,,*59
$GPGSA,A,3,29,05,15,02,13,,,,,,,,2.29,2.07,0.98*05
$GPRMC,203844.000,A,1919.6869,N,09910.8920,W,0.77,296.03,130917,,,A*75
$GPVTG,296.03,T,,M,0.77,N,1.43,K,A*35
$GPGGA,203845.000,1919.6872,N,09910.8928,W,1,05,2.07,2284.4,M,-9.0,M,,*5B
$GPGSA,A,3,29,05,15,02,13,,,,,,,,2.29,2.07,0.98*05
$GPRMC,203845.000,A,1919.6872,N,09910.8928,W,0.43,289.78,130917,,,A*73
$GPVTG,289.78,T,,M,0.43,N,0.80,K,A*3E
$GPGGA,203846.000,1919.6872,N,09910.8931,W,1,05,2.07,2284.3,M,-9.0,M,,*57
$GPGSA,A,3,29,05,15,02,13,,,,,,,,2.29,2.07,0.98*05
$GPRMC,203846.000,A,1919.6872,N,09910.8931,W,0.41,247.29,130917,,,A*7C
$GPVTG,247.29,T,,M,0.41,N,0.75,K,A*30
$GPGGA,203847.000,1919.6873,N,09910.8934,W,1,05,2.07,2284.3,M,-9.0,M,,*52
$GPGSA,A,3,29,05,15,02,13,,,,,,,,2.29,2.07,0.98*05
$GPRMC,203847.000,A,1919.6873,N,09910.8934,W,0.32,215.59,130917,,,A*7D
$GPVTG,215.59,T,,M,0.32,N,0.59,K,A*3A
$GPGGA,203848.000,1919.6874,N,09910.8934,W,1,05,2.07,2284.2,M,-9.0,M,,*5B
$GPGSA,A,3,29,05,15,02,13,,,,,,,,2.29,2.07,0.98*05
$GPGSV,4,1,13,29,81,345,16,15,66,126,29,20,56,356,20,13,43,072,17*76
$GPGSV,4,2,13,18,34,260,,25,26,213,,21,25,316,,05,21,038,21*7A
$GPGSV,4,3,13,02,16,088,17,12,11,180,,24,08,159,,10,07,242,*74
$GPGSV,4,4,13,26,04,306,*4E
$GPRMC,203848.000,A,1919.6874,N,09910.8934,W,0.23,195.85,130917,,,A*7F
$GPVTG,195.85,T,,M,0.23,N,0.42,K,A*3A
$GPGGA,203849.000,1919.6873,N,09910.8934,W,1,05,2.07,2284.2,M,-9.0,M,,*5D
$GPGSA,A,3,29,05,15,02,13,,,,,,,,2.29,2.07,0.98*05
$GPRMC,203849.000,A,1919.6873,N,09910.8934,W,0.17,180.18,130917,,,A*7E
$GPVTG,180.18,T,,M,0.17,N,0.31,K,A*39
$GPGGA,203850.000,1919.6873,N,09910.8934,W,1,05,2.08,2284.2,M,-9.0,M,,*5A
$GPGSA,A,3,29,05,15,02,13,,,,,,,,2.29,2.08,0.98*0A
$GPRMC,203850.000,A,1919.6873,N,09910.8934,W,0.73,166.84,130917,,,A*79
$GPVTG,166.84,T,,M,0.73,N,1.36,K,A*30
$GPGGA,203851.000,1919.6872,N,09910.8937,W,1,05,2.07,2284.1,M,-9.0,M,,*55
$GPGSA,A,3,29,05,15,02,13,,,,,,,,2.29,2.07,0.98*05
$GPRMC,203851.000,A,1919.6872,N,09910.8937,W,1.07,161.00,130917,,,A*73
$GPVTG,161.00,T,,M,1.07,N,1.99,K,A*3C
$GPGGA,203852.000,1919.6869,N,09910.8934,W,1,05,2.08,2284.1,M,-9.0,M,,*50
$GPGSA,A,3,29,05,15,02,13,,,,,,,,2.29,2.08,0.98*0A
$GPRMC,203852.000,A,1919.6869,N,09910.8934,W,1.09,171.11,130917,,,A*76
$GPVTG,171.11,T,,M,1.09,N,2.03,K,A*33
$GPGGA,203853.000,1919.6866,N,09910.8926,W,1,05,2.08,2284.1,M,-9.0,M,,*5D
$GPGSA,A,3,29,05,15,02,13,,,,,,,,2.29,2.08,0.98*0A
$GPGSV,4,1,13,29,81,344,16,15,66,126,29,20,56,356,20,13,43,072,14*74
$GPGSV,4,2,13,18,34,260,,25,26,213,,21,25,316,,05,21,038,21*7A
$GPGSV,4,3,13,02,16,088,18,12,11,180,,24,08,159,,10,07,242,*7B
$GPGSV,4,4,13,26,04,306,*4E
$GPRMC,203853.000,A,1919.6866,N,09910.8926,W,1.23,168.41,130917,,,A*7E
$GPVTG,168.41,T,,M,1.23,N,2.28,K,A*3F
$GPGGA,203854.000,1919.6863,N,09910.8916,W,1,05,2.08,2284.1,M,-9.0,M,,*5C
$GPGSA,A,3,29,05,15,02,13,,,,,,,,2.29,2.08,0.98*0A
$GPRMC,203854.000,A,1919.6863,N,09910.8916,W,1.18,154.12,130917,,,A*7E
$GPVTG,154.12,T,,M,1.18,N,2.18,K,A*3D
$GPGGA,203855.000,1919.6858,N,09910.8888,W,1,05,2.08,2283.9,M,-9.0,M,,*5C
$GPGSA,A,3,29,05,15,02,13,,,,,,,,2.29,2.08,0.98*0A
$GPRMC,203855.000,A,1919.6858,N,09910.8888,W,1.15,131.17,130917,,,A*7A
$GPVTG,131.17,T,,M,1.15,N,2.14,K,A*3A
$GPGGA,203856.000,1919.6857,N,09910.8870,W,1,05,2.08,2283.8,M,-9.0,M,,*56
$GPGSA,A,3,29,05,15,02,13,,,,,,,,2.29,2.08,0.98*0A
$GPRMC,203856.000,A,1919.6857,N,09910.8870,W,1.02,109.46,130917,,,A*78
$GPVTG,109.46,T,,M,1.02,N,1.90,K,A*3C
$GPGGA,203857.000,1919.6854,N,09910.8853,W,1,05,2.08,2283.7,M,-9.0,M,,*5A
$GPGSA,A,3,29,05,15,02,13,,,,,,,,2.29,2.08,0.98*0A
$GPRMC,203857.000,A,1919.6854,N,09910.8853,W,1.47,120.79,130917,,,A*7D
$GPVTG,120.79,T,,M,1.47,N,2.72,K,A*35
$GPGGA,203858.000,1919.6852,N,09910.8846,W,1,05,2.08,2283.7,M,-9.0,M,,*57
$GPGSA,A,3,29,05,15,02,13,,,,,,,,2.29,2.08,0.98*0A
$GPGSV,4,1,13,29,81,344,17,15,66,126,30,20,56,356,20,13,43,072,13*7A
$GPGSV,4,2,13,18,34,260,,25,26,213,,21,25,316,,05,21,038,22*79
$GPGSV,4,3,13,02,16,088,18,12,11,180,,24,08,159,,10,07,242,*7B
$GPGSV,4,4,13,26,04,306,*4E
$GPRMC,203858.000,A,1919.6852,N,09910.8846,W,1.29,122.34,130917,,,A*73
$GPVTG,122.34,T,,M,1.29,N,2.40,K,A*37
$GPGGA,203859.000,1919.6850,N,09910.8840,W,1,05,2.08,2283.7,M,-9.0,M,,*52
$GPGSA,A,3,29,05,15,02,13,,,,,,,,2.29,2.08,0.98*0A
$GPRMC,203859.000,A,1919.6850,N,09910.8840,W,1.43,132.19,130917,,,A*74
$GPVTG,132.19,T,,M,1.43,N,2.65,K,A*32
$GPGGA,203900.000,1919.6850,N,09910.8837,W,1,05,2.08,2283.7,M,-9.0,M,,*5F
$GPGSA,A,3,29,05,15,02,13,,,,,,,,2.29,2.08,0.98*0A
$GPRMC,203900.000,A,1919.6850,N,09910.8837,W,0.95,132.41,130917,,,A*7E
$GPVTG,132.41,T,,M,0.95,N,1.76,K,A*34
$GPGGA,203901.000,1919.6850,N,09910.8837,W,1,05,2.08,2283.7,M,-9.0,M,,*5E
$GPGSA,A,3,29,05,15,02,13,,,,,,,,2.29,2.08,0.98*0A
$GPRMC,203901.000,A,1919.6850,N,09910.8837,W,0.74,147.66,130917,,,A*77
$GPVTG,147.66,T,,M,0.74,N,1.37,K,A*39
$GPGGA,203902.000,1919.6849,N,09910.8833,W,1,05,2.08,2283.7,M,-9.0,M,,*51
$GPGSA,A,3,29,05,15,02,13,,,,,,,,2.29,2.08,0.98*0A
$GPRMC,203902.000,A,1919.6849,N,09910.8833,W,0.72,141.95,130917,,,A*74
$GPVTG,141.95,T,,M,0.72,N,1.34,K,A*36
$GPGGA,203903.000,1919.6849,N,09910.8829,W,1,05,2.08,2283.7,M,-9.0,M,,*5B
$GPGSA,A,3,29,05,15,02,13,,,,,,,,2.29,2.08,0.98*0A
$GPGSV,4,1,13,29,81,344,17,15,66,126,31,20,56,356,20,13,43,072,15*7D
$GPGSV,4,2,13,18,34,260,,25,26,213,,21,25,316,,05,21,038,23*78
$GPGSV,4,3,13,02,16,088,19,12,11,180,,24,08,159,,10,07,242,*7A
$GPGSV,4,4,13,26,04,306,*4E
$GPRMC,203903.000,A,1919.6849,N,09910.8829,W,0.53,110.63,130917,,,A*70
$GPVTG,110.63,T,,M,0.53,N,0.98,K,A*3F
$GPGGA,203904.000,1919.6848,N,09910.8826,W,1,05,2.08,2283.7,M,-9.0,M,,*52
$GPGSA,A,3,29,05,15,02,13,,,,,,,,2.29,2.08,0.98*0A
$GPRMC,203904.000,A,1919.6848,N,09910.8826,W,0.68,110.92,130917,,,A*7F
$GPVTG,110.92,T,,M,0.68,N,1.26,K,A*3D
$GPGGA,203905.000,1919.6849,N,09910.8825,W,1,05,2.08,2283.6,M,-9.0,M,,*50
$GPGSA,A,3,29,05,15,02,13,,,,,,,,2.30,2.08,0.98*02
$GPRMC,203905.000,A,1919.6849,N,09910.8825,W,0.62,109.75,130917,,,A*77
$GPVTG,109.75,T,,M,0.62,N,1.16,K,A*35
$GPGGA,203906.000,1919.6851,N,09910.8829,W,1,05,2.08,2283.6,M,-9.0,M,,*56
$GPGSA,A,3,29,05,15,02,13,,,,,,,,2.29,2.08,0.98*0A
$GPRMC,203906.000,A,1919.6851,N,09910.8829,W,0.32,110.39,130917,,,A*74
$GPVTG,110.39,T,,M,0.32,N,0.59,K,A*3A
$GPGGA,203907.000,1919.6853,N,09910.8834,W,1,05,2.08,2283.6,M,-9.0,M,,*59
$GPGSA,A,3,29,05,15,02,13,,,,,,,,2.30,2.08,0.98*02
$GPRMC,203907.000,A,1919.6853,N,09910.8834,W,0.71,94.58,130917,,,A*46
$GPVTG,94.58,T,,M,0.71,N,1.32,K,A*0B
$GPGGA,203908.000,1919.6855,N,09910.8842,W,1,05,2.08,2283.4,M,-9.0,M,,*53
$GPGSA,A,3,29,05,15,02,13,,,,,,,,2.29,2.08,0.98*0A
$GPGSV,4,1,13,29,81,344,17,15,66,126,31,20,56,356,20,13,43,072,16*7E
$GPGSV,4,2,13,18,34,260,,25,26,213,,21,25,316,,05,21,038,24*7F
$GPGSV,4,3,13,02,16,088,19,12,11,180,,10,08,242,,24,08,159,*75
$GPGSV,4,4,13,26,04,306,*4E
$GPRMC,203908.000,A,1919.6855,N,09910.8842,W,0.80,92.64,130917,,,A*49
$GPVTG,92.64,T,,M,0.80,N,1.48,K,A*01
$GPGGA,203909.000,1919.6858,N,09910.8854,W,1,05,2.08,2283.2,M,-9.0,M,,*5E
$GPGSA,A,3,29,05,15,02,13,,,,,,,,2.29,2.08,0.98*0A
$GPRMC,203909.000,A,1919.6858,N,09910.8854,W,0.39,87.33,130917,,,A*46
$GPVTG,87.33,T,,M,0.39,N,0.72,K,A*0D
$GPGGA,203910.000,1919.6861,N,09910.8859,W,1,05,2.08,2283.0,M,-9.0,M,,*53
$GPGSA,A,3,29,05,15,02,13,,,,,,,,2.30,2.08,0.98*02
$GPRMC,203910.000,A,1919.6861,N,09910.8859,W,0.25,24.71,130917,,,A*4B
$GPVTG,24.71,T,,M,0.25,N,0.47,K,A*09
$GPGGA,203911.000,1919.6862,N,09910.8864,W,1,05,2.08,2282.9,M,-9.0,M,,*57
$GPGSA,A,3,29,05,15,02,13,,,,,,,,2.30,2.08,0.98*02
$GPRMC,203911.000,A,1919.6862,N,09910.8864,W,0.21,121.54,130917,,,A*70
$GPVTG,121.54,T,,M,0.21,N,0.38,K,A*36
$GPGGA,203912.000,1919.6862,N,09910.8866,W,1,05,2.08,2282.8,M,-9.0,M,,*57
$GPGSA,A,3,29,05,15,02,13,,,,,,,,2.30,2.08,0.98*02
$GPRMC,203912.000,A,1919.6862,N,09910.8866,W,0.11,95.25,130917,,,A*4A
$GPVTG,95.25,T,,M,0.11,N,0.20,K,A*04
$GPGGA,203913.000,1919.6862,N,09910.8865,W,1,05,2.08,2282.8,M,-9.0,M,,*55
$GPGSA,A,3,29,05,15,02,13,,,,,,,,2.30,2.08,0.98*02
$GPGSV,4,1,13,29,81,344,17,15,66,126,31,20,56,356,18,13,43,072,16*75
$GPGSV,4,2,13,18,34,260,,25,26,213,,21,25,316,,05,21,038,24*7F
$GPGSV,4,3,13,02,16,088,19,12,11,180,,10,08,242,,24,08,159,*75
$GPGSV,4,4,13,26,04,306,*4E
$GPRMC,203913.000,A,1919.6862,N,09910.8865,W,0.38,51.80,130917,,,A*44
$GPVTG,51.80,T,,M,0.38,N,0.70,K,A*0D
$GPGGA,203914.000,1919.6862,N,09910.8865,W,1,05,2.08,2282.8,M,-9.0,M,,*52
$GPGSA,A,3,29,05,15,02,13,,,,,,,,2.30,2.08,0.98*02
$GPRMC,203914.000,A,1919.6862,N,09910.8865,W,0.47,47.23,130917,,,A*45
$GPVTG,47.23,T,,M,0.47,N,0.87,K,A*03
$GPGGA,203915.000,1919.6863,N,09910.8864,W,1,05,2.08,2282.8,M,-9.0,M,,*53
$GPGSA,A,3,29,05,15,02,13,,,,,,,,2.30,2.08,0.98*02
$GPRMC,203915.000,A,1919.6863,N,09910.8864,W,0.49,61.28,130917,,,A*45
$GPVTG,61.28,T,,M,0.49,N,0.90,K,A*04
$GPGGA,203916.000,1919.6864,N,09910.8862,W,1,05,2.08,2282.8,M,-9.0,M,,*51
$GPGSA,A,3,29,05,15,02,13,,,,,,,,2.30,2.08,0.98*02
$GPRMC,203916.000,A,1919.6864,N,09910.8862,W,0.65,75.17,130917,,,A*40
$GPVTG,75.17,T,,M,0.65,N,1.21,K,A*08
$GPGGA,203917.000,1919.6864,N,09910.8861,W,1,05,2.08,2282.8,M,-9.0,M,,*53
$GPGSA,A,3,29,05,15,02,13,,,,,,,,2.30,2.08,0.98*02
$GPRMC,203917.000,A,1919.6864,N,09910.8861,W,0.56,102.10,130917,,,A*74
$GPVTG,102.10,T,,M,0.56,N,1.03,K,A*3E
$GPGGA,203918.000,1919.6864,N,09910.8860,W,1,05,2.08,2282.8,M,-9.0,M,,*5D
$GPGSA,A,3,29,05,15,02,13,,,,,,,,2.30,2.08,0.98*02
$GPGSV,4,1,13,29,81,344,17,15,66,126,31,20,56,357,18,13,43,072,16*74
$GPGSV,4,2,13,18,34,260,,25,26,213,,21,25,317,,05,21,038,23*79
$GPGSV,4,3,13,02,16,088,19,12,11,180,,10,08,242,,24,08,159,*75
$GPGSV,4,4,13,26,04,306,*4E
$GPRMC,203918.000,A,1919.6864,N,09910.8860,W,0.12,5.71,130917,,,A*7B
$GPVTG,5.71,T,,M,0.12,N,0.22,K,A*3D
$GPGGA,203919.000,1919.6863,N,09910.8862,W,1,05,3.91,2282.7,M,-9.0,M,,*57
$GPGSA,A,3,29,05,15,02,13,,,,,,,,5.91,3.91,4.43*0D
$GPRMC,203919.000,A,1919.6863,N,09910.8862,W,0.46,198.94,130917,,,A*70
$GPVTG,198.94,T,,M,0.46,N,0.85,K,A*3F
$GPGGA,203920.000,1919.6862,N,09910.8863,W,1,05,2.08,2282.7,M,-9.0,M,,*5C
$GPGSA,A,3,29,05,15,02,13,,,,,,,,2.30,2.08,0.98*02
$GPRMC,203920.000,A,1919.6862,N,09910.8863,W,0.43,233.71,130917,,,A*76
$GPVTG,233.71,T,,M,0.43,N,0.80,K,A*36
$GPGGA,203921.000,1919.6862,N,09910.8864,W,1,05,2.08,2282.7,M,-9.0,M,,*5A
$GPGSA,A,3,29,05,15,02,13,,,,,,,,2.30,2.08,0.98*02
$GPRMC,203921.000,A,1919.6862,N,09910.8864,W,0.16,182.56,130917,,,A*7C
$GPVTG,182.56,T,,M,0.16,N,0.29,K,A*39
$GPGGA,203922.000,1919.6861,N,09910.8864,W,1,05,2.08,2282.7,M,-9.0,M,,*5A
$GPGSA,A,3,29,05,15,02,13,,,,,,,,2.30,2.08,0.98*02
$GPRMC,203922.000,A,1919.6861,N,09910.8864,W,0.41,127.87,130917,,,A*7D
$GPVTG,127.87,T,,M,0.41,N,0.75,K,A*31
$GPGGA,203923.000,1919.6861,N,09910.8863,W,1,05,2.08,2282.7,M,-9.0,M,,*5C
$GPGSA,A,3,29,05,15,02,13,,,,,,,,2.30,2.08,0.98*02
$GPGSV,4,1,13,29,81,344,16,15,66,126,31,20,56,357,18,13,43,072,17*74
$GPGSV,4,2,13,18,34,260,,25,26,213,,21,25,317,,05,21,038,23*79
$GPGSV,4,3,13,02,16,088,20,12,11,180,,10,08,242,,24,08,159,*7F
$GPGSV,4,4,13,26,04,306,*4E
$GPRMC,203923.000,A,1919.6861,N,09910.8863,W,0.73,125.95,130917,,,A*7B
$GPVTG,125.95,T,,M,0.73,N,1.36,K,A*37
$GPGGA,203924.000,1919.6858,N,09910.8858,W,1,05,2.08,2282.8,M,-9.0,M,,*56
$GPGSA,A,3,29,05,15,02,13,,,,,,,,2.30,2.08,0.98*02
$GPRMC,203924.000,A,1919.6858,N,09910.8858,W,0.73,126.78,130917,,,A*7E
$GPVTG,126.78,T,,M,0.73,N,1.35,K,A*34
$GPGGA,203925.000,1919.6857,N,09910.8853,W,1,05,2.08,2282.9,M,-9.0,M,,*52
$GPGSA,A,3,29,05,15,02,13,,,,,,,,2.30,2.08,0.98*02
$GPRMC,203925.000,A,1919.6857,N,09910.8853,W,0.37,110.89,130917,,,A*70
$GPVTG,110.89,T,,M,0.37,N,0.68,K,A*36
$GPGGA,203926.000,1919.6856,N,09910.8853,W,1,05,2.08,2282.9,M,-9.0,M,,*50
$GPGSA,A,3,29,05,15,02,13,,,,,,,,2.30,2.08,0.98*02
$GPRMC,203926.000,A,1919.6856,N,09910.8853,W,0.30,121.94,130917,,,A*7B
$GPVTG,121.94,T,,M,0.30,N,0.56,K,A*32
$GPGGA,203927.000,1919.6854,N,09910.8852,W,1,05,2.08,2282.9,M,-9.0,M,,*52
$GPGSA,A,3,29,05,15,02,13,,,,,,,,2.30,2.08,0.98*02
$GPRMC,203927.000,A,1919.6854,N,09910.8852,W,0.58,149.24,130917,,,A*72
$GPVTG,149.24,T,,M,0.58,N,1.07,K,A*3C
$GPGGA,203928.000,1919.6852,N,09910.8854,W,1,05,2.08,2282.9,M,-9.0,M,,*5D
$GPGSA,A,3,29,05,15,02,13,,,,,,,,2.30,2.08,0.98*02
$GPGSV,4,1,13,29,82,344,13,15,66,126,29,20,56,357,17,13,43,072,18*7B
$GPGSV,4,2,13,18,34,260,,25,26,213,,21,25,317,,05,21,038,21*7B
$GPGSV,4,3,13,02,16,088,20,12,11,180,,10,08,242,,24,08,159,*7F
$GPGSV,4,4,13,26,04,306,*4E
$GPRMC,203928.000,A,1919.6852,N,09910.8854,W,0.43,167.68,130917,,,A*73
$GPVTG,167.68,T,,M,0.43,N,0.79,K,A*3A
$GPGGA,203929.000,1919.6851,N,09910.8853,W,1,05,2.08,2282.9,M,-9.0,M,,*58
$GPGSA,A,3,29,05,15,02,13,,,,,,,,2.30,2.08,0.98*02
$GPRMC,203929.000,A,1919.6851,N,09910.8853,W,0.36,244.16,130917,,,A*7F
$GPVTG,244.16,T,,M,0.36,N,0.67,K,A*3C
$GPGGA,203930.000,1919.6851,N,09910.8854,W,1,05,2.08,2282.9,M,-9.0,M,,*57
$GPGSA,A,3,29,05,15,02,13,,,,,,,,2.30,2.08,0.98*02
$GPRMC,203930.000,A,1919.6851,N,09910.8854,W,0.30,266.44,130917,,,A*71
$GPVTG,266.44,T,,M,0.30,N,0.55,K,A*3C
$GPGGA,203931.000,1919.6851,N,09910.8855,W,1,05,2.08,2282.9,M,-9.0,M,,*57
$GPGSA,A,3,29,05,15,02,13,,,,,,,,2.30,2.08,0.98*02
$GPRMC,203931.000,A,1919.6851,N,09910.8855,W,0.45,322.95,130917,,,A*7E
$GPVTG,322.95,T,,M,0.45,N,0.83,K,A*38
$GPGGA,203932.000,1919.6852,N,09910.8856,W,1,05,2.08,2282.9,M,-9.0,M,,*54
$GPGSA,A,3,29,05,15,02,13,,,,,,,,2.30,2.08,0.98*02
$GPRMC,203932.000,A,1919.6852,N,09910.8856,W,0.16,2.69,130917,,,A*79
$GPVTG,2.69,T,,M,0.16,N,0.30,K,A*34
$GPGGA,203933.000,1919.6852,N,09910.8856,W,1,05,3.90,2282.9,M,-9.0,M,,*55
$GPGSA,A,3,29,05,15,02,13,,,,,,,,5.89,3.90,4.41*07
$GPGSV,4,1,13,29,82,344,12,15,66,126,29,20,56,357,17,13,43,072,19*7B
$GPGSV,4,2,13,18,34,260,,25,26,213,,21,25,317,,05,21,038,21*7B
$GPGSV,4,3,13,02,16,088,20,12,11,180,,10,08,242,,24,08,159,*7F
$GPGSV,4,4,13,26,04,306,*4E
$GPRMC,203933.000,A,1919.6852,N,09910.8856,W,0.22,136.52,130917,,,A*71
$GPVTG,136.52,T,,M,0.22,N,0.42,K,A*38
$GPGGA,203934.000,1919.6852,N,09910.8856,W,1,05,2.08,2282.9,M,-9.0,M,,*52
$GPGSA,A,3,29,05,15,02,13,,,,,,,,2.30,2.08,0.98*02
$GPRMC,203934.000,A,1919.6852,N,09910.8856,W,0.30,202.76,130917,,,A*77
$GPVTG,202.76,T,,M,0.30,N,0.56,K,A*3C
$GPGGA,203935.000,1919.6851,N,09910.8856,W,1,05,2.08,2282.9,M,-9.0,M,,*50
$GPGSA,A,3,29,05,15,02,13,,,,,,,,2.30,2.08,0.98*02
$GPRMC,203935.000,A,1919.6851,N,09910.8856,W,0.73,205.71,130917,,,A*72
$GPVTG,205.71,T,,M,0.73,N,1.36,K,A*3C
$GPGGA,203936.000,1919.6848,N,09910.8862,W,1,05,2.08,2282.7,M,-9.0,M,,*52
$GPGSA,A,3,29,05,15,02,13,,,,,,,,2.30,2.08,0.98*02
$GPRMC,203936.000,A,1919.6848,N,09910.8862,W,0.72,237.23,130917,,,A*79
$GPVTG,237.23,T,,M,0.72,N,1.34,K,A*39
$GPGGA,203937.000,1919.6847,N,09910.8867,W,1,05,2.08,2282.6,M,-9.0,M,,*58
$GPGSA,A,3,29,05,15,02,13,,,,,,,,2.30,2.08,0.98*02
$GPRMC,203937.000,A,1919.6847,N,09910.8867,W,0.50,240.60,130917,,,A*75
$GPVTG,240.60,T,,M,0.50,N,0.92,K,A*33
$GPGGA,203938.000,1919.6848,N,09910.8869,W,1,04,2.78,2282.4,M,-9.0,M,,*52
$GPGSA,A,3,05,15,02,13,,,,,,,,,2.95,2.78,0.98*01
$GPGSV,4,1,13,29,82,344,,15,66,126,29,20,56,357,16,13,43,072,19*79
$GPGSV,4,2,13,18,34,260,,25,26,213,,21,25,317,,05,21,038,20*7A
$GPGSV,4,3,13,02,16,089,19,12,11,180,,10,08,242,,24,08,159,*74
$GPGSV,4,4,13,26,04,306,*4E
$GPRMC,203938.000,A,1919.6848,N,09910.8869,W,0.39,308.41,130917,,,A*7A
$GPVTG,308.41,T,,M,0.39,N,0.73,K,A*3D
$GPGGA,203939.000,1919.6846,N,09910.8871,W,1,04,2.78,2282.3,M,-9.0,M,,*53
$GPGSA,A,3,05,15,02,13,,,,,,,,,2.95,2.78,0.98*01
$GPRMC,203939.000,A,1919.6846,N,09910.8871,W,0.24,319.98,130917,,,A*74
$GPVTG,319.98,T,,M,0.24,N,0.45,K,A*30
$GPGGA,203940.000,1919.6845,N,09910.8871,W,1,04,2.78,2282.2,M,-9.0,M,,*5F
$GPGSA,A,3,05,15,02,13,,,,,,,,,2.95,2.78,0.98*01
$GPRMC,203940.000,A,1919.6845,N,09910.8871,W,0.21,298.89,130917,,,A*74
$GPVTG,298.89,T,,M,0.21,N,0.39,K,A*36
$GPGGA,203941.000,1919.6845,N,09910.8872,W,1,04,2.78,2282.2,M,-9.0,M,,*5D
$GPGSA,A,3,05,15,02,13,,,,,,,,,2.95,2.78,0.98*01
$GPRMC,203941.000,A,1919.6845,N,09910.8872,W,0.31,157.60,130917,,,A*70
$GPVTG,157.60,T,,M,0.31,N,0.58,K,A*37
$GPGGA,203942.000,1919.6844,N,09910.8872,W,1,04,2.78,2282.2,M,-9.0,M,,*5F
$GPGSA,A,3,05,15,02,13,,,,,,,,,2.94,2.78,0.98*00
$GPRMC,203942.000,A,1919.6844,N,09910.8872,W,0.63,163.78,130917,,,A*7B
$GPVTG,163.78,T,,M,0.63,N,1.17,K,A*34
$GPGGA,203943.000,1919.6842,N,09910.8870,W,1,04,2.78,2282.1,M,-9.0,M,,*59
$GPGSA,A,3,05,15,02,13,,,,,,,,,2.95,2.78,0.98*01
$GPGSV,4,1,13,29,82,344,,15,66,126,30,20,56,357,15,13,43,072,19*72
$GPGSV,4,2,13,18,34,260,,25,26,213,,21,25,317,,05,21,038,20*7A
$GPGSV,4,3,13,02,16,089,19,12,11,180,,10,08,242,,24,08,159,*74
$GPGSV,4,4,13,26,04,306,*4E
$GPRMC,203943.000,A,1919.6842,N,09910.8870,W,0.66,155.43,130917,,,A*76
$GPVTG,155.43,T,,M,0.66,N,1.22,K,A*3A
$GPGGA,203944.000,1919.6837,N,09910.8867,W,1,04,2.78,2282.0,M,-9.0,M,,*5B
$GPGSA,A,3,05,15,02,13,,,,,,,,,2.95,2.78,0.98*01
$GPRMC,203944.000,A,1919.6837,N,09910.8867,W,1.06,152.20,130917,,,A*70
$GPVTG,152.20,T,,M,1.06,N,1.96,K,A*30
$GPGGA,203945.000,1919.6835,N,09910.8866,W,1,04,2.78,2281.9,M,-9.0,M,,*53
$GPGSA,A,3,05,15,02,13,,,,,,,,,2.95,2.78,0.98*01
$GPRMC,203945.000,A,1919.6835,N,09910.8866,W,1.12,144.19,130917,,,A*7A
$GPVTG,144.19,T,,M,1.12,N,2.08,K,A*3C
$GPGGA,203946.000,1919.6836,N,09910.8866,W,1,04,2.78,2281.7,M,-9.0,M,,*5D
$GPGSA,A,3,05,15,02,13,,,,,,,,,2.95,2.78,0.98*01
$GPRMC,203946.000,A,1919.6836,N,09910.8866,W,0.64,94.47,130917,,,A*4D
$GPVTG,94.47,T,,M,0.64,N,1.19,K,A*08
$GPGGA,203947.000,1919.6835,N,09910.8863,W,1,04,2.78,2281.6,M,-9.0,M,,*5B
$GPGSA,A,3,05,15,02,13,,,,,,,,,2.95,2.78,0.98*01
$GPRMC,203947.000,A,1919.6835,N,09910.8863,W,0.81,81.00,130917,,,A*46
$GPVTG,81.00,T,,M,0.81,N,1.50,K,A*09
$GPGGA,203948.000,1919.6834,N,09910.8864,W,1,04,2.78,2281.6,M,-9.0,M,,*52
$GPGSA,A,3,05,15,02,13,,,,,,,,,2.95,2.78,0.98*01
$GPGSV,4,1,13,29,82,344,,15,66,125,30,20,56,357,14,13,43,072,22*78
$GPGSV,4,2,13,18,34,260,,25,26,213,,21,25,317,,05,21,038,20*7A
$GPGSV,4,3,13,02,16,089,20,12,11,180,,10,08,242,,24,08,159,*7E
$GPGSV,4,4,13,26,04,306,*4E
$GPRMC,203948.000,A,1919.6834,N,09910.8864,W,0.63,96.93,130917,,,A*4F
$GPVTG,96.93,T,,M,0.63,N,1.16,K,A*0B
$GPGGA,203949.000,1919.6835,N,09910.8862,W,1,04,2.78,2281.6,M,-9.0,M,,*54
$GPGSA,A,3,05,15,02,13,,,,,,,,,2.95,2.78,0.98*01
$GPRMC,203949.000,A,1919.6835,N,09910.8862,W,0.79,89.32,130917,,,A*47
$GPVTG,89.32,T,,M,0.79,N,1.46,K,A*00
$GPGGA,203950.000,1919.6838,N,09910.8864,W,1,04,2.78,2281.6,M,-9.0,M,,*57
$GPGSA,A,3,05,15,02,13,,,,,,,,,2.95,2.78,0.98*01
$GPRMC,203950.000,A,1919.6838,N,09910.8864,W,0.51,80.34,130917,,,A*41
$GPVTG,80.34,T,,M,0.51,N,0.94,K,A*0B
$GPGGA,203951.000,1919.6838,N,09910.8868,W,1,04,2.78,2281.6,M,-9.0,M,,*5A
$GPGSA,A,3,05,15,02,13,,,,,,,,,2.95,2.78,0.98*01
$GPRMC,203951.000,A,1919.6838,N,09910.8868,W,0.19,128.36,130917,,,A*71
$GPVTG,128.36,T,,M,0.19,N,0.36,K,A*3E
$GPGGA,203952.000,1919.6840,N,09910.8867,W,1,04,2.78,2281.5,M,-9.0,M,,*5A
$GPGSA,A,3,05,15,02,13,,,,,,,,,2.95,2.78,0.98*01
$GPRMC,203952.000,A,1919.6840,N,09910.8867,W,0.47,354.14,130917,,,A*70
$GPVTG,354.14,T,,M,0.47,N,0.88,K,A*39
$GPGGA,203953.000,1919.6841,N,09910.8867,W,1,04,4.91,2281.5,M,-9.0,M,,*5B
$GPGSA,A,3,05,15,02,13,,,,,,,,,6.76,4.91,4.65*0F
$GPGSV,4,1,13,29,82,344,,15,66,125,30,20,55,357,14,13,43,072,22*7B
$GPGSV,4,2,13,18,34,260,,21,26,317,,25,26,213,,05,21,038,20*79
$GPGSV,4,3,13,02,16,089,20,12,11,180,,10,08,242,,24,08,159,*7E
$GPGSV,4,4,13,26,04,306,*4E
$GPRMC,203953.000,A,1919.6841,N,09910.8867,W,0.49,15.65,130917,,,A*4E
$GPVTG,15.65,T,,M,0.49,N,0.91,K,A*0F
$GPGGA,203954.000,1919.6842,N,09910.8866,W,1,04,2.78,2281.5,M,-9.0,M,,*5F
$GPGSA,A,3,05,15,02,13,,,,,,,,,2.95,2.78,0.98*01
$GPRMC,203954.000,A,1919.6842,N,09910.8866,W,0.38,53.93,130917,,,A*46
$GPVTG,53.93,T,,M,0.38,N,0.70,K,A*0D
$GPGGA,203955.000,1919.6843,N,09910.8865,W,1,04,2.78,2281.6,M,-9.0,M,,*5F
$GPGSA,A,3,05,15,02,13,,,,,,,,,2.95,2.78,0.98*01
